{"name":"dbo.GeoObjViewCustomers","type":"FeatureCollection"
,"features":[
{"type":"Feature","geometry":{"type":"Point","coordinates":[-110.75012,39.60338]},"properties":{"cb_status":"U","City":"PRICE","State":"UT","description":"UTAH AMERICA ENERGY TOWER MINE INC. -- PRICE,UT","user_id":"PALE","CustomerName":"UTAH AMERICA ENERGY TOWER MINE INC.","solo_key":157,"cb_territorty":"UTPRIC"}}
,{"type":"Feature","geometry":{"type":"Point","coordinates":[-110.8107148,39.5994095]},"properties":{"cb_status":"U","City":"PRICE","State":"UT","description":"BEAVER CREEK COAL COMPANY -- PRICE,UT","user_id":"PALE","CustomerName":"BEAVER CREEK COAL COMPANY","solo_key":350,"cb_territorty":"UTPRIC"}}
,{"type":"Feature","geometry":{"type":"Point","coordinates":[-110.811477,39.599075]},"properties":{"cb_status":"U","City":"PRICE","State":"UT","description":"BOOKCLIFF SALES INC -- PRICE,UT","user_id":"PALE","CustomerName":"BOOKCLIFF SALES INC","solo_key":423,"cb_territorty":"UTPRIC"}}
,{"type":"Feature","geometry":{"type":"Point","coordinates":[-95.0761608,41.3175344]},"properties":{"cb_status":"U","City":"PRICE","State":"UT","description":"CATE CARBON -- PRICE,UT","user_id":"PALE","CustomerName":"CATE CARBON","solo_key":544,"cb_territorty":"UTPRIC"}}
,{"type":"Feature","geometry":{"type":"Point","coordinates":[-110.81138,39.595468]},"properties":{"cb_status":"U","City":"PRICE","State":"UT","description":"C T E COMM TESTING AND ENGINEERING -- PRICE,UT","user_id":"PALE","CustomerName":"C T E COMM TESTING AND ENGINEERING","solo_key":823,"cb_territorty":"UTPRIC"}}
,{"type":"Feature","geometry":{"type":"Point","coordinates":[-110.964776,39.326851]},"properties":{"cb_status":"U","City":"HUNTINGTON","State":"UT","description":"ENERGY WEST MINING -- HUNTINGTON,UT","user_id":"PALE","CustomerName":"ENERGY WEST MINING","solo_key":1128,"cb_territorty":"UTPRIC"}}
,{"type":"Feature","geometry":{"type":"Point","coordinates":[-110.815721,39.590766]},"properties":{"cb_status":"U","City":"PRICE","State":"UT","description":"FAIRMONT SUPPLY -- PRICE,UT","user_id":"PALE","CustomerName":"FAIRMONT SUPPLY","solo_key":1182,"cb_territorty":"UTPRIC"}}
,{"type":"Feature","geometry":{"type":"Point","coordinates":[-88.899676,38.290737]},"properties":{"cb_status":"U","City":"MOUNT VERNON","State":"IL","description":"JOY GLOBAL -- MOUNT VERNON,IL","user_id":"PALE","CustomerName":"JOY GLOBAL","solo_key":1734,"cb_territorty":"IL"}}
,{"type":"Feature","geometry":{"type":"Point","coordinates":[-86.890522,33.558158]},"properties":{"cb_status":"U","City":"BIRMINGHAM","State":"AL","description":"JOY GLOBAL -- BIRMINGHAM,AL","user_id":"PALE","CustomerName":"JOY GLOBAL","solo_key":1738,"cb_territorty":"ALBHM"}}
,{"type":"Feature","geometry":{"type":"Point","coordinates":[-104.222126,32.42421]},"properties":{"cb_status":"E","City":"CARLSBAD","State":"NM","description":"JOY GLOBAL UNDERGROUND MINING -- CARLSBAD,NM","user_id":"PALE","CustomerName":"JOY GLOBAL UNDERGROUND MINING","solo_key":1741,"cb_territorty":"NM"}}
,{"type":"Feature","geometry":{"type":"Point","coordinates":[-110.814532,39.582301]},"properties":{"cb_status":"U","City":"PRICE","State":"UT","description":"OLDENBURG LAKESHORE -- PRICE,UT","user_id":"PALE","CustomerName":"OLDENBURG LAKESHORE","solo_key":1859,"cb_territorty":"UTPRIC"}}
,{"type":"Feature","geometry":{"type":"Point","coordinates":[-110.947143,39.339088]},"properties":{"cb_status":"D","City":"HUNTINGTON","State":"UT","description":"CATERPILLAR GLOBAL MINING -- HUNTINGTON,UT","user_id":"PALE","CustomerName":"CATERPILLAR GLOBAL MINING","solo_key":1900,"cb_territorty":"UTPRIC"}}
,{"type":"Feature","geometry":{"type":"Point","coordinates":[-110.811384,39.597627]},"properties":{"cb_status":"U","City":"PRICE","State":"UT","description":"NATIONAL MINE SERVICE -- PRICE,UT","user_id":"PALE","CustomerName":"NATIONAL MINE SERVICE","solo_key":2208,"cb_territorty":"UTPRIC"}}
,{"type":"Feature","geometry":{"type":"Point","coordinates":[-111.96658,38.83508]},"properties":{"cb_status":"U","City":"SIGURD","State":"UT","description":"SIGURD OPERATIONS -- SIGURD,UT","user_id":"PALE","CustomerName":"SIGURD OPERATIONS","solo_key":2839,"cb_territorty":"UTPRIC"}}
,{"type":"Feature","geometry":{"type":"Point","coordinates":[-110.797397,39.597905]},"properties":{"cb_status":"E","City":"PRICE","State":"UT","description":"TRAM ELECTRIC INC -- PRICE,UT","user_id":"PALE","CustomerName":"TRAM ELECTRIC INC","solo_key":3083,"cb_territorty":"UTPRIC"}}
,{"type":"Feature","geometry":{"type":"Point","coordinates":[-111.02889,39.17417]},"properties":{"cb_status":"D","City":"CASTLE DALE","State":"UT","description":"HUNTER POWER STATION PACIFICORP -- CASTLE DALE,UT","user_id":"PALE","CustomerName":"HUNTER POWER STATION PACIFICORP","solo_key":3224,"cb_territorty":"UTPRIC"}}
,{"type":"Feature","geometry":{"type":"Point","coordinates":[-110.854652,39.683235]},"properties":{"cb_status":"H","City":"HELPER","State":"UT","description":"PACIFICORP -- HELPER,UT","user_id":"PALE","CustomerName":"PACIFICORP","solo_key":3226,"cb_territorty":"UTPRIC"}}
,{"type":"Feature","geometry":{"type":"Point","coordinates":[-111.07931,39.37919]},"properties":{"cb_status":"E","City":"HUNTINGTON","State":"UT","description":"PACIFICORP -- HUNTINGTON,UT","user_id":"PALE","CustomerName":"PACIFICORP","solo_key":3227,"cb_territorty":"UTPRIC"}}
,{"type":"Feature","geometry":{"type":"Point","coordinates":[-110.790831,39.594616]},"properties":{"cb_status":"E","City":"PRICE","State":"UT","description":"KAMAN INDUSTRIAL TECHNOLOGIES -- PRICE,UT","user_id":"PALE","CustomerName":"KAMAN INDUSTRIAL TECHNOLOGIES","solo_key":3786,"cb_territorty":"UTPRIC"}}
,{"type":"Feature","geometry":{"type":"Point","coordinates":[-110.8107148,39.5994095]},"properties":{"cb_status":"U","City":"PRICE","State":"UT","description":"CYPRUS PLATEAU MINE -- PRICE,UT","user_id":"PALE","CustomerName":"CYPRUS PLATEAU MINE","solo_key":3869,"cb_territorty":"UTPRIC"}}
,{"type":"Feature","geometry":{"type":"Point","coordinates":[-104.82966,39.6386]},"properties":{"cb_status":"U","City":"AURORA","State":"CO","description":"AUTOLIV INFLATORS -- AURORA,CO","user_id":"PALE","CustomerName":"AUTOLIV INFLATORS","solo_key":4041,"cb_territorty":"COGRVI"}}
,{"type":"Feature","geometry":{"type":"Point","coordinates":[-110.815621,39.557222]},"properties":{"cb_status":"U","City":"PRICE","State":"UT","description":"UNDERGROUND SERVICES -- PRICE,UT","user_id":"PALE","CustomerName":"UNDERGROUND SERVICES","solo_key":5714,"cb_territorty":"UTPRIC"}}
,{"type":"Feature","geometry":{"type":"Point","coordinates":[-112.0840943,38.7724673]},"properties":{"cb_status":"U","City":"RICHFIELD","State":"UT","description":"BILL WINKEL DISTRIBUTING CO -- RICHFIELD,UT","user_id":"PALE","CustomerName":"BILL WINKEL DISTRIBUTING CO","solo_key":7027,"cb_territorty":"UTPRIC"}}
,{"type":"Feature","geometry":{"type":"Point","coordinates":[-87.343958,33.258746]},"properties":{"cb_status":"D","City":"BROOKWOOD","State":"AL","description":"JOY GLOBAL UNDERGROUND MINING  -- BROOKWOOD,AL","user_id":"PALE","CustomerName":"JOY GLOBAL UNDERGROUND MINING","solo_key":8349,"cb_territorty":"AL"}}
,{"type":"Feature","geometry":{"type":"Point","coordinates":[-87.383746,39.288481]},"properties":{"cb_status":"U","City":"PIMENTO","State":"IN","description":"BLACK BEAUTY MINE -- PIMENTO,IN","user_id":"PALE","CustomerName":"BLACK BEAUTY MINE","solo_key":9594,"cb_territorty":"IN"}}
,{"type":"Feature","geometry":{"type":"Point","coordinates":[-112.086048,40.719115]},"properties":{"cb_status":"G","City":"MAGNA","State":"UT","description":"KENNECOTT UTAH COPPER -- MAGNA,UT","user_id":"PALE","CustomerName":"KENNECOTT UTAH COPPER","solo_key":9924,"cb_territorty":"UTSLS2"}}
,{"type":"Feature","geometry":{"type":"Point","coordinates":[-82.62725,36.931513]},"properties":{"cb_status":"H","City":"NORTON","State":"VA","description":"JOY GLOBAL UNDERGROUND MINING -- NORTON,VA","user_id":"PALE","CustomerName":"JOY GLOBAL UNDERGROUND MINING","solo_key":10021,"cb_territorty":"VA"}}
,{"type":"Feature","geometry":{"type":"Point","coordinates":[-111.957818,40.746362]},"properties":{"cb_status":"G","City":"SALT LAKE CITY","State":"UT","description":"C H SPENCER AND COMPANY -- SALT LAKE CITY,UT","user_id":"PALE","CustomerName":"C H SPENCER AND COMPANY","solo_key":10148,"cb_territorty":"UTSLN2"}}
,{"type":"Feature","geometry":{"type":"Point","coordinates":[-110.809571,39.593563]},"properties":{"cb_status":"U","City":"PRICE","State":"UT","description":"PACIFIC CENTRAL STEEL -- PRICE,UT","user_id":"PALE","CustomerName":"PACIFIC CENTRAL STEEL","solo_key":10416,"cb_territorty":"UTPRIC"}}
,{"type":"Feature","geometry":{"type":"Point","coordinates":[-112.084332,40.725321]},"properties":{"cb_status":"U","City":"MAGNA","State":"UT","description":"KENNECOTT UTAH COPPER -- MAGNA,UT","user_id":"PALE","CustomerName":"KENNECOTT UTAH COPPER","solo_key":10577,"cb_territorty":"UTSLS2"}}
,{"type":"Feature","geometry":{"type":"Point","coordinates":[-110.858349,39.680463]},"properties":{"cb_status":"D","City":"HELPER","State":"UT","description":"MORGANTOWN MACHINE AND HYDRAULICS -- HELPER,UT","user_id":"PALE","CustomerName":"MORGANTOWN MACHINE AND HYDRAULICS","solo_key":10668,"cb_territorty":"UTPRIC"}}
,{"type":"Feature","geometry":{"type":"Point","coordinates":[-110.806903,39.600863]},"properties":{"cb_status":"U","City":"PRICE","State":"UT","description":"CUSTOM SUPPLY INC -- PRICE,UT","user_id":"PALE","CustomerName":"CUSTOM SUPPLY INC","solo_key":10703,"cb_territorty":"UTPRIC"}}
,{"type":"Feature","geometry":{"type":"Point","coordinates":[-110.84164,39.6285]},"properties":{"cb_status":"U","City":"PRICE","State":"UT","description":"WESTERN MINE TOOLS INC -- PRICE,UT","user_id":"PALE","CustomerName":"WESTERN MINE TOOLS INC","solo_key":10704,"cb_territorty":"UTPRIC"}}
,{"type":"Feature","geometry":{"type":"Point","coordinates":[-110.804417,39.598237]},"properties":{"cb_status":"U","City":"PRICE","State":"UT","description":"PECZUH PRINTING COMPANY -- PRICE,UT","user_id":"PALE","CustomerName":"PECZUH PRINTING COMPANY","solo_key":10705,"cb_territorty":"UTPRIC"}}
,{"type":"Feature","geometry":{"type":"Point","coordinates":[-110.82221,39.604342]},"properties":{"cb_status":"F","City":"PRICE","State":"UT","description":"LONGWALL WEST -- PRICE,UT","user_id":"PALE","CustomerName":"LONGWALL WEST","solo_key":10721,"cb_territorty":"UTPRIC"}}
,{"type":"Feature","geometry":{"type":"Point","coordinates":[-112.082289,40.7255]},"properties":{"cb_status":"H","City":"MAGNA","State":"UT","description":"KENNECOTT UTAH COPPER -- MAGNA,UT","user_id":"PALE","CustomerName":"KENNECOTT UTAH COPPER","solo_key":10729,"cb_territorty":"UTSLS2"}}
,{"type":"Feature","geometry":{"type":"Point","coordinates":[-110.844414,39.615763]},"properties":{"cb_status":"H","City":"PRICE","State":"UT","description":"INTERMOUNTAIN ELECTRONICS -- PRICE,UT","user_id":"PALE","CustomerName":"INTERMOUNTAIN ELECTRONICS","solo_key":10755,"cb_territorty":"UTPRIC"}}
,{"type":"Feature","geometry":{"type":"Point","coordinates":[-110.807121,39.599463]},"properties":{"cb_status":"U","City":"PRICE","State":"UT","description":"DINOSAUR TIRE SERVICE CENTER -- PRICE,UT","user_id":"PALE","CustomerName":"DINOSAUR TIRE SERVICE CENTER","solo_key":10756,"cb_territorty":"UTPRIC"}}
,{"type":"Feature","geometry":{"type":"Point","coordinates":[-110.969788,39.319163]},"properties":{"cb_status":"U","City":"HUNTINGTON","State":"UT","description":"MACS MINING REPAIR -- HUNTINGTON,UT","user_id":"PALE","CustomerName":"MACS MINING REPAIR","solo_key":10913,"cb_territorty":"UTPRIC"}}
,{"type":"Feature","geometry":{"type":"Point","coordinates":[-111.889679,40.760639]},"properties":{"cb_status":"U","City":"SALT LAKE CITY","State":"UT","description":"KENNECOTT MINERALS -- SALT LAKE CITY,UT","user_id":"PALE","CustomerName":"KENNECOTT MINERALS","solo_key":10914,"cb_territorty":"UTSLN1"}}
,{"type":"Feature","geometry":{"type":"Point","coordinates":[-111.0595,39.22035]},"properties":{"cb_status":"U","City":"ORANGEVILLE","State":"UT","description":"INDUSTRIAL ELECTRIC -- ORANGEVILLE,UT","user_id":"PALE","CustomerName":"INDUSTRIAL ELECTRIC","solo_key":10936,"cb_territorty":"UTPRIC"}}
,{"type":"Feature","geometry":{"type":"Point","coordinates":[-110.815821,39.576425]},"properties":{"cb_status":"E","City":"PRICE","State":"UT","description":"CODALE ELECTRIC SUPPLY -- PRICE,UT","user_id":"PALE","CustomerName":"CODALE ELECTRIC SUPPLY","solo_key":11059,"cb_territorty":"UTPRIC"}}
,{"type":"Feature","geometry":{"type":"Point","coordinates":[-110.82221,39.604342]},"properties":{"cb_status":"U","City":"PRICE","State":"UT","description":"R M WILSON CO -- PRICE,UT","user_id":"PALE","CustomerName":"R M WILSON CO","solo_key":11103,"cb_territorty":"UTPRIC"}}
,{"type":"Feature","geometry":{"type":"Point","coordinates":[-110.955121,39.33776]},"properties":{"cb_status":"U","City":"HUNTINGTON","State":"UT","description":"GENCO MINE SERVICE -- HUNTINGTON,UT","user_id":"PALE","CustomerName":"GENCO MINE SERVICE","solo_key":11163,"cb_territorty":"UTPRIC"}}
,{"type":"Feature","geometry":{"type":"Point","coordinates":[-109.46392,37.64118]},"properties":{"cb_status":"U","City":"BLANDING","State":"UT","description":"DENISON MINES CORP -- BLANDING,UT","user_id":"PALE","CustomerName":"DENISON MINES CORP","solo_key":11178,"cb_territorty":"UTSOEA"}}
,{"type":"Feature","geometry":{"type":"Point","coordinates":[-81.908836,36.7371]},"properties":{"cb_status":"U","City":"ABINGDON","State":"VA","description":"JOY GLOBAL UNDERGROUND MINING -- ABINGDON,VA","user_id":"PALE","CustomerName":"JOY GLOBAL UNDERGROUND MINING","solo_key":11183,"cb_territorty":"VA"}}
,{"type":"Feature","geometry":{"type":"Point","coordinates":[-110.8152,39.5816]},"properties":{"cb_status":"U","City":"PRICE","State":"UT","description":"CASTLE COUNTRY HYDRAULICS -- PRICE,UT","user_id":"PALE","CustomerName":"CASTLE COUNTRY HYDRAULICS","solo_key":11351,"cb_territorty":"UTPRIC"}}
,{"type":"Feature","geometry":{"type":"Point","coordinates":[-110.809387,39.599541]},"properties":{"cb_status":"U","City":"PRICE","State":"UT","description":"MERIT ENERGY -- PRICE,UT","user_id":"PALE","CustomerName":"MERIT ENERGY","solo_key":12491,"cb_territorty":"UTPRIC"}}
,{"type":"Feature","geometry":{"type":"Point","coordinates":[-110.809387,39.599541]},"properties":{"cb_status":"U","City":"PRICE","State":"UT","description":"QUESTAR -- PRICE,UT","user_id":"PALE","CustomerName":"QUESTAR","solo_key":12637,"cb_territorty":"UTPRIC"}}
,{"type":"Feature","geometry":{"type":"Point","coordinates":[-110.891563,39.655131]},"properties":{"cb_status":"U","City":"HELPER","State":"UT","description":"STERLING CONSTRUCTION -- HELPER,UT","user_id":"PALE","CustomerName":"STERLING CONSTRUCTION","solo_key":15932,"cb_territorty":"UTPRIC"}}
,{"type":"Feature","geometry":{"type":"Point","coordinates":[-110.819822,39.550329]},"properties":{"cb_status":"U","City":"PRICE","State":"UT","description":"MID STATE SERVICES -- PRICE,UT","user_id":"PALE","CustomerName":"MID STATE SERVICES","solo_key":16936,"cb_territorty":"UTPRIC"}}
,{"type":"Feature","geometry":{"type":"Point","coordinates":[-110.734192,39.543709]},"properties":{"cb_status":"U","City":"WELLINGTON","State":"UT","description":"HIGH COUNTRY FOREST PRODUCTS -- WELLINGTON,UT","user_id":"PALE","CustomerName":"HIGH COUNTRY FOREST PRODUCTS","solo_key":17046,"cb_territorty":"UTPRIC"}}
,{"type":"Feature","geometry":{"type":"Point","coordinates":[-111.594609,39.361818]},"properties":{"cb_status":"U","City":"EPHRAIM","State":"UT","description":"C O BUILDING SYSTEM -- EPHRAIM,UT","user_id":"PALE","CustomerName":"C O BUILDING SYSTEM","solo_key":17236,"cb_territorty":"UTPRIC"}}
,{"type":"Feature","geometry":{"type":"Point","coordinates":[-110.854637,39.684319]},"properties":{"cb_status":"U","City":"HELPER","State":"UT","description":"MID STATE SERVICES -- HELPER,UT","user_id":"PALE","CustomerName":"MID STATE SERVICES","solo_key":17237,"cb_territorty":"UTPRIC"}}
,{"type":"Feature","geometry":{"type":"Point","coordinates":[-110.85192,39.34908]},"properties":{"cb_status":"U","City":"CLEVELAND","State":"UT","description":"GYMONS -- CLEVELAND,UT","user_id":"PALE","CustomerName":"GYMONS","solo_key":18071,"cb_territorty":"UTPRIC"}}
,{"type":"Feature","geometry":{"type":"Point","coordinates":[-111.899718,40.655326]},"properties":{"cb_status":"U","City":"MURRAY","State":"UT","description":"KENNECOTT LAND DEVELOPEMENT -- MURRAY,UT","user_id":"PALE","CustomerName":"KENNECOTT LAND DEVELOPEMENT","solo_key":18250,"cb_territorty":"UTSLS4"}}
,{"type":"Feature","geometry":{"type":"Point","coordinates":[-110.803969,39.686946]},"properties":{"cb_status":"U","City":"HELPER","State":"UT","description":"LGM -- HELPER,UT","user_id":"PALE","CustomerName":"LGM","solo_key":19290,"cb_territorty":"UTPRIC"}}
,{"type":"Feature","geometry":{"type":"Point","coordinates":[-110.859864,39.691548]},"properties":{"cb_status":"U","City":"HELPER","State":"UT","description":"LAMAR -- HELPER,UT","user_id":"PALE","CustomerName":"LAMAR","solo_key":19427,"cb_territorty":"UTPRIC"}}
,{"type":"Feature","geometry":{"type":"Point","coordinates":[-110.786477,39.609541]},"properties":{"cb_status":"U","City":"PRICE","State":"UT","description":"JIM GLUESING -- PRICE,UT","user_id":"PALE","CustomerName":"JIM GLUESING","solo_key":19437,"cb_territorty":"UTPRIC"}}
,{"type":"Feature","geometry":{"type":"Point","coordinates":[-110.815821,39.576453]},"properties":{"cb_status":"U","City":"PRICE","State":"UT","description":"E C I -- PRICE,UT","user_id":"PALE","CustomerName":"E C I","solo_key":19683,"cb_territorty":"UTPRIC"}}
,{"type":"Feature","geometry":{"type":"Point","coordinates":[-111.92078,40.853957]},"properties":{"cb_status":"D","City":"NORTH SALT LAKE","State":"UT","description":"R AND R MACHINE INC -- NORTH SALT LAKE,UT","user_id":"PALE","CustomerName":"R AND R MACHINE INC","solo_key":19994,"cb_territorty":"UTBOUN"}}
,{"type":"Feature","geometry":{"type":"Point","coordinates":[-110.969788,39.319163]},"properties":{"cb_status":"U","City":"HUNTINGTON","State":"UT","description":"MAX MINING -- HUNTINGTON,UT","user_id":"PALE","CustomerName":"MAX MINING","solo_key":21518,"cb_territorty":"UTPRIC"}}
,{"type":"Feature","geometry":{"type":"Point","coordinates":[-110.8131,39.59026]},"properties":{"cb_status":"U","City":"PRICE","State":"UT","description":"NELCO CONTRACTORS -- PRICE,UT","user_id":"PALE","CustomerName":"NELCO CONTRACTORS","solo_key":22145,"cb_territorty":"UTPRIC"}}
,{"type":"Feature","geometry":{"type":"Point","coordinates":[-110.815821,39.576453]},"properties":{"cb_status":"U","City":"PRICE","State":"UT","description":"ELECTRICAL CONTRACTORS -- PRICE,UT","user_id":"PALE","CustomerName":"ELECTRICAL CONTRACTORS","solo_key":23412,"cb_territorty":"UTPRIC"}}
,{"type":"Feature","geometry":{"type":"Point","coordinates":[-110.816098,39.590267]},"properties":{"cb_status":"U","City":"PRICE","State":"UT","description":"KENWORTH DEALER -- PRICE,UT","user_id":"PALE","CustomerName":"KENWORTH DEALER","solo_key":23436,"cb_territorty":"UTPRIC"}}
,{"type":"Feature","geometry":{"type":"Point","coordinates":[-112.08978,40.6941]},"properties":{"cb_status":"U","City":"MAGNA","State":"UT","description":"KENNECOTT UTAH COPPER -- MAGNA,UT","user_id":"PALE","CustomerName":"KENNECOTT UTAH COPPER","solo_key":23521,"cb_territorty":"UTSLS2"}}
,{"type":"Feature","geometry":{"type":"Point","coordinates":[-112.084526,40.724112]},"properties":{"cb_status":"U","City":"MAGNA","State":"UT","description":"KENNECOTT UTAH COPPER -- MAGNA,UT","user_id":"PALE","CustomerName":"KENNECOTT UTAH COPPER","solo_key":26549,"cb_territorty":"UTSLS2"}}
,{"type":"Feature","geometry":{"type":"Point","coordinates":[-110.7636,39.5241]},"properties":{"cb_status":"U","City":"WELLINGTON","State":"UT","description":"SAVAGE COAL -- WELLINGTON,UT","user_id":"PALE","CustomerName":"SAVAGE COAL","solo_key":27865,"cb_territorty":"UTPRIC"}}
,{"type":"Feature","geometry":{"type":"Point","coordinates":[-112.105713,40.541168]},"properties":{"cb_status":"U","City":"BINGHAM CANYON","State":"UT","description":"KENNECOTT UTAH COPPER -- BINGHAM CANYON,UT","user_id":"PALE","CustomerName":"KENNECOTT UTAH COPPER","solo_key":27889,"cb_territorty":"UTSLN2"}}
,{"type":"Feature","geometry":{"type":"Point","coordinates":[-111.96658,38.83508]},"properties":{"cb_status":"U","City":"SIGURD","State":"UT","description":"GEORGIA PACIFIC -- SIGURD,UT","user_id":"PALE","CustomerName":"GEORGIA PACIFIC","solo_key":28020,"cb_territorty":"UTPRIC"}}
,{"type":"Feature","geometry":{"type":"Point","coordinates":[-110.814619,39.58265]},"properties":{"cb_status":"U","City":"PRICE","State":"UT","description":"CROWN ENERGY TECHNOLOGY -- PRICE,UT","user_id":"PALE","CustomerName":"CROWN ENERGY TECHNOLOGY","solo_key":28236,"cb_territorty":"UTPRIC"}}
,{"type":"Feature","geometry":{"type":"Point","coordinates":[-112.1133,38.7475]},"properties":{"cb_status":"U","City":"RICHFIELD","State":"UT","description":"DIAMOND K GYPSUM -- RICHFIELD,UT","user_id":"PALE","CustomerName":"DIAMOND K GYPSUM","solo_key":28308,"cb_territorty":"UTPRIC"}}
,{"type":"Feature","geometry":{"type":"Point","coordinates":[-87.615611,37.817711]},"properties":{"cb_status":"D","City":"HENDERSON","State":"KY","description":"JOY GLOBAL UNDERGROUND MINNING -- HENDERSON,KY","user_id":"PALE","CustomerName":"JOY GLOBAL UNDERGROUND MINNING","solo_key":32157,"cb_territorty":"KY"}}
,{"type":"Feature","geometry":{"type":"Point","coordinates":[-110.344002,39.613899]},"properties":{"cb_status":"H","City":"EAST CARBON","State":"UT","description":"WEST RIDGE RESOURCES -- EAST CARBON,UT","user_id":"PALE","CustomerName":"WEST RIDGE RESOURCES","solo_key":34280,"cb_territorty":"UTPRIC"}}
,{"type":"Feature","geometry":{"type":"Point","coordinates":[-110.790621,39.595289]},"properties":{"cb_status":"U","City":"PRICE","State":"UT","description":"WALMART 1573 -- PRICE,UT","user_id":"PALE","CustomerName":"WALMART 1573","solo_key":36616,"cb_territorty":"UTPRIC"}}
,{"type":"Feature","geometry":{"type":"Point","coordinates":[-112.0526,38.7863]},"properties":{"cb_status":"U","City":"RICHFIELD","State":"UT","description":"ELI CHILDER -- RICHFIELD,UT","user_id":"PALE","CustomerName":"ELI CHILDER","solo_key":36777,"cb_territorty":"UTPRIC"}}
,{"type":"Feature","geometry":{"type":"Point","coordinates":[-110.80559,39.615595]},"properties":{"cb_status":"U","City":"PRICE","State":"UT","description":"EXTERRAN -- PRICE,UT","user_id":"PALE","CustomerName":"EXTERRAN","solo_key":38455,"cb_territorty":"UTPRIC"}}
,{"type":"Feature","geometry":{"type":"Point","coordinates":[-110.8148,39.598]},"properties":{"cb_status":"U","City":"PRICE","State":"UT","description":"RENAGADE PIPE -- PRICE,UT","user_id":"PALE","CustomerName":"RENAGADE PIPE","solo_key":38538,"cb_territorty":"UTPRIC"}}
,{"type":"Feature","geometry":{"type":"Point","coordinates":[-110.780529,39.59906]},"properties":{"cb_status":"U","City":"PRICE","State":"UT","description":"ANDALEX RESOURCES INC -- PRICE,UT","user_id":"PALE","CustomerName":"ANDALEX RESOURCES INC","solo_key":39760,"cb_territorty":"UTPRIC"}}
,{"type":"Feature","geometry":{"type":"Point","coordinates":[-112.084623,38.76126]},"properties":{"cb_status":"U","City":"RICHFIELD","State":"UT","description":"JAYS DIESEL -- RICHFIELD,UT","user_id":"PALE","CustomerName":"JAYS DIESEL","solo_key":44602,"cb_territorty":"UTPRIC"}}
,{"type":"Feature","geometry":{"type":"Point","coordinates":[-110.858349,39.680737]},"properties":{"cb_status":"U","City":"HELPER","State":"UT","description":"KENWORTH SALES -- HELPER,UT","user_id":"PALE","CustomerName":"KENWORTH SALES","solo_key":44856,"cb_territorty":"UTPRIC"}}
,{"type":"Feature","geometry":{"type":"Point","coordinates":[-110.809387,39.599541]},"properties":{"cb_status":"U","City":"PRICE","State":"UT","description":"PHILLIPS PETROLEUM CO -- PRICE,UT","user_id":"PALE","CustomerName":"PHILLIPS PETROLEUM CO","solo_key":45689,"cb_territorty":"UTPRIC"}}
,{"type":"Feature","geometry":{"type":"Point","coordinates":[-111.96694,38.84452]},"properties":{"cb_status":"U","City":"SIGURD","State":"UT","description":"U S GYPSUM -- SIGURD,UT","user_id":"PALE","CustomerName":"U S GYPSUM","solo_key":46262,"cb_territorty":"UTPRIC"}}
,{"type":"Feature","geometry":{"type":"Point","coordinates":[-112.06502,40.6965]},"properties":{"cb_status":"U","City":"MAGNA","State":"UT","description":"KENNECOTT UTAH COPPER -- MAGNA,UT","user_id":"PALE","CustomerName":"KENNECOTT UTAH COPPER","solo_key":48651,"cb_territorty":"UTSLS2"}}
,{"type":"Feature","geometry":{"type":"Point","coordinates":[-111.645059,39.24918]},"properties":{"cb_status":"U","City":"MANTI","State":"UT","description":"SANPETEJAIL -- MANTI,UT","user_id":"PALE","CustomerName":"SANPETEJAIL","solo_key":49557,"cb_territorty":"UTPRIC"}}
,{"type":"Feature","geometry":{"type":"Point","coordinates":[-110.82159,39.603279]},"properties":{"cb_status":"U","City":"PRICE","State":"UT","description":"CORLETTE TRUCKING -- PRICE,UT","user_id":"PALE","CustomerName":"CORLETTE TRUCKING","solo_key":50061,"cb_territorty":"UTPRIC"}}
,{"type":"Feature","geometry":{"type":"Point","coordinates":[-110.693114,39.54168]},"properties":{"cb_status":"A","City":"WELLINGTON","State":"UT","description":"JOY TECHNOLOGIES INC -- WELLINGTON,UT","user_id":"PALE","CustomerName":"JOY TECHNOLOGIES INC","solo_key":51180,"cb_territorty":"UTPRIC"}}
,{"type":"Feature","geometry":{"type":"Point","coordinates":[-111.966169,40.740631]},"properties":{"cb_status":"D","City":"SALT LAKE CITY","State":"UT","description":"KUEHNE  NAGEL INC -- SALT LAKE CITY,UT","user_id":"PALE","CustomerName":"KUEHNE  NAGEL INC","solo_key":51378,"cb_territorty":"UTSLN2"}}
,{"type":"Feature","geometry":{"type":"Point","coordinates":[-110.809387,39.599541]},"properties":{"cb_status":"U","City":"PRICE","State":"UT","description":"BARNEY AND SONS -- PRICE,UT","user_id":"PALE","CustomerName":"BARNEY AND SONS","solo_key":52816,"cb_territorty":"UTPRIC"}}
,{"type":"Feature","geometry":{"type":"Point","coordinates":[-87.642841,41.896568]},"properties":{"cb_status":"F","City":"CHICAGO","State":"IL","description":"ECHO GLOBAL LOGISTICS INC -- CHICAGO,IL","user_id":"PALE","CustomerName":"ECHO GLOBAL LOGISTICS INC","solo_key":53834,"cb_territorty":"ILCOON"}}
,{"type":"Feature","geometry":{"type":"Point","coordinates":[-110.815859,39.573909]},"properties":{"cb_status":"U","City":"PRICE","State":"UT","description":"NATIONAL OILWELL VARCO -- PRICE,UT","user_id":"PALE","CustomerName":"NATIONAL OILWELL VARCO","solo_key":55212,"cb_territorty":"UTPRIC"}}
,{"type":"Feature","geometry":{"type":"Point","coordinates":[-108.127538,32.773057]},"properties":{"cb_status":"D","City":"VANADIUM","State":"NM","description":"FREEPORT MCMORAN CHINO MINES CO -- VANADIUM,NM","user_id":"PALE","CustomerName":"FREEPORT MCMORAN CHINO MINES CO","solo_key":58585,"cb_territorty":"NM"}}
,{"type":"Feature","geometry":{"type":"Point","coordinates":[-110.97107,39.350364]},"properties":{"cb_status":"U","City":"HUNTINGTON","State":"UT","description":"NIELSON CONSTRUCTION -- HUNTINGTON,UT","user_id":"PALE","CustomerName":"NIELSON CONSTRUCTION","solo_key":60515,"cb_territorty":"UTPRIC"}}
,{"type":"Feature","geometry":{"type":"Point","coordinates":[-94.970593,39.460935]},"properties":{"cb_status":"U","City":"WESTON","State":"MO","description":"KIEWIT POWER CONSTRUCTORS -- WESTON,MO","user_id":"PALE","CustomerName":"KIEWIT POWER CONSTRUCTORS","solo_key":63004,"cb_territorty":"MOMCI"}}
,{"type":"Feature","geometry":{"type":"Point","coordinates":[-110.866013,39.694861]},"properties":{"cb_status":"U","City":"HELPER","State":"UT","description":"BADLANDS FAB AND MACHINE -- HELPER,UT","user_id":"PALE","CustomerName":"BADLANDS FAB AND MACHINE","solo_key":67762,"cb_territorty":"UTPRIC"}}
,{"type":"Feature","geometry":{"type":"Point","coordinates":[-110.811477,39.600633]},"properties":{"cb_status":"U","City":"PRICE","State":"UT","description":"PRAXAIR -- PRICE,UT","user_id":"PALE","CustomerName":"PRAXAIR","solo_key":69224,"cb_territorty":"UTPRIC"}}
,{"type":"Feature","geometry":{"type":"Point","coordinates":[-112.084946,38.763485]},"properties":{"cb_status":"U","City":"RICHFIELD","State":"UT","description":"FASTENAL -- RICHFIELD,UT","user_id":"PALE","CustomerName":"FASTENAL","solo_key":71514,"cb_territorty":"UTPRIC"}}
,{"type":"Feature","geometry":{"type":"Point","coordinates":[-110.822136,39.617064]},"properties":{"cb_status":"U","City":"PRICE","State":"UT","description":"QUESTAR -- PRICE,UT","user_id":"PALE","CustomerName":"QUESTAR","solo_key":72486,"cb_territorty":"UTPRIC"}}
,{"type":"Feature","geometry":{"type":"Point","coordinates":[-118.736979,34.142039]},"properties":{"cb_status":"U","City":"WESTLAKE VILLAGE","State":"CA","description":"F D S I LOGISTICS -- WESTLAKE VILLAGE,CA","user_id":"PALE","CustomerName":"F D S I LOGISTICS","solo_key":74217,"cb_territorty":"CAVENT"}}
,{"type":"Feature","geometry":{"type":"Point","coordinates":[-110.815752,39.570113]},"properties":{"cb_status":"U","City":"PRICE","State":"UT","description":"PACIFICORP -- PRICE,UT","user_id":"PALE","CustomerName":"PACIFICORP","solo_key":75543,"cb_territorty":"UTPRIC"}}
,{"type":"Feature","geometry":{"type":"Point","coordinates":[-112.084623,38.7789]},"properties":{"cb_status":"U","City":"RICHFIELD","State":"UT","description":"PACIFICORP -- RICHFIELD,UT","user_id":"PALE","CustomerName":"PACIFICORP","solo_key":75708,"cb_territorty":"UTPRIC"}}
,{"type":"Feature","geometry":{"type":"Point","coordinates":[-108.386808,43.05572]},"properties":{"cb_status":"E","City":"RIVERTON","State":"WY","description":"MCJUNKIN RED MAN CORPORATION -- RIVERTON,WY","user_id":"PALE","CustomerName":"MCJUNKIN RED MAN CORPORATION","solo_key":76568,"cb_territorty":"WY"}}
,{"type":"Feature","geometry":{"type":"Point","coordinates":[-110.816821,39.550363]},"properties":{"cb_status":"U","City":"PRICE","State":"UT","description":"OMEGA TRANSWORLD -- PRICE,UT","user_id":"PALE","CustomerName":"OMEGA TRANSWORLD","solo_key":79918,"cb_territorty":"UTPRIC"}}
,{"type":"Feature","geometry":{"type":"Point","coordinates":[-111.888734,38.976585]},"properties":{"cb_status":"U","City":"SALINA","State":"UT","description":"SUPER 8 MOTEL -- SALINA,UT","user_id":"PALE","CustomerName":"SUPER 8 MOTEL","solo_key":83953,"cb_territorty":"UTPRIC"}}
,{"type":"Feature","geometry":{"type":"Point","coordinates":[-112.219963,38.238369]},"properties":{"cb_status":"U","City":"JUNCTION","State":"UT","description":"A S I R C C -- JUNCTION,UT","user_id":"PALE","CustomerName":"A S I R C C","solo_key":85542,"cb_territorty":"UTPRIC"}}
,{"type":"Feature","geometry":{"type":"Point","coordinates":[-110.816038,39.558611]},"properties":{"cb_status":"U","City":"PRICE","State":"UT","description":"OLD DOMINION -- PRICE,UT","user_id":"PALE","CustomerName":"OLD DOMINION","solo_key":89648,"cb_territorty":"UTPRIC"}}
,{"type":"Feature","geometry":{"type":"Point","coordinates":[-111.093219,39.41451]},"properties":{"cb_status":"H","City":"HUNTINGTON","State":"UT","description":"CASTLE VALLEY MINING -- HUNTINGTON,UT","user_id":"PALE","CustomerName":"CASTLE VALLEY MINING","solo_key":89741,"cb_territorty":"UTPRIC"}}
,{"type":"Feature","geometry":{"type":"Point","coordinates":[-110.718619,39.502036]},"properties":{"cb_status":"U","City":"PRICE","State":"UT","description":"JOHN BERRYMAN -- PRICE,UT","user_id":"PALE","CustomerName":"JOHN BERRYMAN","solo_key":90551,"cb_territorty":"UTPRIC"}}
,{"type":"Feature","geometry":{"type":"Point","coordinates":[-110.824043,39.606323]},"properties":{"cb_status":"U","City":"PRICE","State":"UT","description":"LONGWALL WEST INC -- PRICE,UT","user_id":"PALE","CustomerName":"LONGWALL WEST INC","solo_key":220068,"cb_territorty":"UTPRIC"}}
,{"type":"Feature","geometry":{"type":"Point","coordinates":[-110.815694,39.579991]},"properties":{"cb_status":"U","City":"PRICE","State":"UT","description":"KILFOYL CRAFT -- PRICE,UT","user_id":"PALE","CustomerName":"KILFOYL CRAFT","solo_key":238777,"cb_territorty":"UTPRIC"}}
,{"type":"Feature","geometry":{"type":"Point","coordinates":[-111.011882,39.211628]},"properties":{"cb_status":"U","City":"CASTLE DALE","State":"UT","description":"POWER SOURCE SERVICES -- CASTLE DALE,UT","user_id":"PALE","CustomerName":"POWER SOURCE SERVICES","solo_key":241022,"cb_territorty":"UTPRIC"}}
,{"type":"Feature","geometry":{"type":"Point","coordinates":[-110.817455,39.550315]},"properties":{"cb_status":"U","City":"PRICE","State":"UT","description":"HYDRAULIC REPAIR -- PRICE,UT","user_id":"PALE","CustomerName":"HYDRAULIC REPAIR","solo_key":245230,"cb_territorty":"UTPRIC"}}
,{"type":"Feature","geometry":{"type":"Point","coordinates":[-110.816019,39.57318]},"properties":{"cb_status":"U","City":"PRICE","State":"UT","description":"CORDAL ELECTRICAL SUPPLY -- PRICE,UT","user_id":"PALE","CustomerName":"CORDAL ELECTRICAL SUPPLY","solo_key":246602,"cb_territorty":"UTPRIC"}}
,{"type":"Feature","geometry":{"type":"Point","coordinates":[-110.78896,39.60901]},"properties":{"cb_status":"U","City":"PRICE","State":"UT","description":"NELSON CONSTRUCTION -- PRICE,UT","user_id":"PALE","CustomerName":"NELSON CONSTRUCTION","solo_key":247136,"cb_territorty":"UTPRIC"}}
,{"type":"Feature","geometry":{"type":"Point","coordinates":[-110.693114,39.54168]},"properties":{"cb_status":"U","City":"WELLINGTON","State":"UT","description":"COVOL ENGINEERED FUELS -- WELLINGTON,UT","user_id":"PALE","CustomerName":"COVOL ENGINEERED FUELS","solo_key":255405,"cb_territorty":"UTPRIC"}}
,{"type":"Feature","geometry":{"type":"Point","coordinates":[-110.816332,39.590328]},"properties":{"cb_status":"U","City":"PRICE","State":"UT","description":"FASTENAL -- PRICE,UT","user_id":"PALE","CustomerName":"FASTENAL","solo_key":258453,"cb_territorty":"UTPRIC"}}
,{"type":"Feature","geometry":{"type":"Point","coordinates":[-75.976021,43.001503]},"properties":{"cb_status":"A","City":"MANLIUS","State":"NY","description":"KENNECOTT UTAH COPPER -- MANLIUS,NY","user_id":"PALE","CustomerName":"KENNECOTT UTAH COPPER","solo_key":258634,"cb_territorty":"NY"}}
,{"type":"Feature","geometry":{"type":"Point","coordinates":[-110.813272,39.591654]},"properties":{"cb_status":"U","City":"PRICE","State":"UT","description":"SPECTRUM PAINT -- PRICE,UT","user_id":"PALE","CustomerName":"SPECTRUM PAINT","solo_key":261721,"cb_territorty":"UTPRIC"}}
,{"type":"Feature","geometry":{"type":"Point","coordinates":[-110.814374,39.582351]},"properties":{"cb_status":"U","City":"PRICE","State":"UT","description":"BODEC -- PRICE,UT","user_id":"PALE","CustomerName":"BODEC","solo_key":262578,"cb_territorty":"UTPRIC"}}
,{"type":"Feature","geometry":{"type":"Point","coordinates":[-110.787559,39.60774]},"properties":{"cb_status":"U","City":"PRICE","State":"UT","description":"COVOL ENGINEERED FUELS -- PRICE,UT","user_id":"PALE","CustomerName":"COVOL ENGINEERED FUELS","solo_key":264308,"cb_territorty":"UTPRIC"}}
,{"type":"Feature","geometry":{"type":"Point","coordinates":[-111.581618,39.364982]},"properties":{"cb_status":"U","City":"EPHRAIM","State":"UT","description":"BAILEY BROTHERS -- EPHRAIM,UT","user_id":"PALE","CustomerName":"BAILEY BROTHERS","solo_key":265331,"cb_territorty":"UTPRIC"}}
,{"type":"Feature","geometry":{"type":"Point","coordinates":[-110.794094,39.598998]},"properties":{"cb_status":"U","City":"PRICE","State":"UT","description":"SMITH GROCERY -- PRICE,UT","user_id":"PALE","CustomerName":"SMITH GROCERY","solo_key":269585,"cb_territorty":"UTPRIC"}}
,{"type":"Feature","geometry":{"type":"Point","coordinates":[-110.819884,39.550349]},"properties":{"cb_status":"U","City":"PRICE","State":"UT","description":"AMERICA WEST RESOURCES -- PRICE,UT","user_id":"PALE","CustomerName":"AMERICA WEST RESOURCES","solo_key":270308,"cb_territorty":"UTPRIC"}}
,{"type":"Feature","geometry":{"type":"Point","coordinates":[-110.811384,39.597686]},"properties":{"cb_status":"U","City":"PRICE","State":"UT","description":"AIRGAS -- PRICE,UT","user_id":"PALE","CustomerName":"AIRGAS","solo_key":271703,"cb_territorty":"UTPRIC"}}
,{"type":"Feature","geometry":{"type":"Point","coordinates":[-111.967419,38.842633]},"properties":{"cb_status":"U","City":"SIGURD","State":"UT","description":"UNITED STATES GYPSUM -- SIGURD,UT","user_id":"PALE","CustomerName":"UNITED STATES GYPSUM","solo_key":272653,"cb_territorty":"UTPRIC"}}
,{"type":"Feature","geometry":{"type":"Point","coordinates":[-111.865731,39.000478]},"properties":{"cb_status":"U","City":"REDMOND","State":"UT","description":"NIELSEN ARC SERVICE -- REDMOND,UT","user_id":"PALE","CustomerName":"NIELSEN ARC SERVICE","solo_key":278489,"cb_territorty":"UTPRIC"}}
,{"type":"Feature","geometry":{"type":"Point","coordinates":[-110.81938,39.551177]},"properties":{"cb_status":"G","City":"PRICE","State":"UT","description":"DRY SYSTEMS -- PRICE,UT","user_id":"PALE","CustomerName":"DRY SYSTEMS","solo_key":293635,"cb_territorty":"UTPRIC"}}
,{"type":"Feature","geometry":{"type":"Point","coordinates":[-110.709972,39.542494]},"properties":{"cb_status":"U","City":"WELLINGTON","State":"UT","description":"MINE WEST -- WELLINGTON,UT","user_id":"PALE","CustomerName":"MINE WEST","solo_key":294154,"cb_territorty":"UTPRIC"}}
,{"type":"Feature","geometry":{"type":"Point","coordinates":[-111.583525,39.359452]},"properties":{"cb_status":"U","City":"EPHRAIM","State":"UT","description":"TODD ALDER CONSTRUCTION -- EPHRAIM,UT","user_id":"PALE","CustomerName":"TODD ALDER CONSTRUCTION","solo_key":297500,"cb_territorty":"UTPRIC"}}
,{"type":"Feature","geometry":{"type":"Point","coordinates":[-110.780529,39.59906]},"properties":{"cb_status":"U","City":"PRICE","State":"UT","description":"CARBON COUNTY ROAD DEPT -- PRICE,UT","user_id":"PALE","CustomerName":"CARBON COUNTY ROAD DEPT","solo_key":297659,"cb_territorty":"UTPRIC"}}
,{"type":"Feature","geometry":{"type":"Point","coordinates":[-110.895459,39.6533]},"properties":{"cb_status":"U","City":"HELPER","State":"UT","description":"AMERICA WEST RESOURCES -- HELPER,UT","user_id":"PALE","CustomerName":"AMERICA WEST RESOURCES","solo_key":300306,"cb_territorty":"UTPRIC"}}
,{"type":"Feature","geometry":{"type":"Point","coordinates":[-111.244799,38.91733]},"properties":{"cb_status":"U","City":"EMERY","State":"UT","description":"LIVE EARTH -- EMERY,UT","user_id":"PALE","CustomerName":"LIVE EARTH","solo_key":301134,"cb_territorty":"UTPRIC"}}
,{"type":"Feature","geometry":{"type":"Point","coordinates":[-110.814789,39.59734]},"properties":{"cb_status":"U","City":"PRICE","State":"UT","description":"WEATHERFORD -- PRICE,UT","user_id":"PALE","CustomerName":"WEATHERFORD","solo_key":311368,"cb_territorty":"UTPRIC"}}
,{"type":"Feature","geometry":{"type":"Point","coordinates":[-110.841579,39.631031]},"properties":{"cb_status":"U","City":"HELPER","State":"UT","description":"ORIGINAL CREATIONS, INC. -- HELPER,UT","user_id":"PALE","CustomerName":"ORIGINAL CREATIONS, INC.","solo_key":312257,"cb_territorty":"UTPRIC"}}
,{"type":"Feature","geometry":{"type":"Point","coordinates":[0,0]},"properties":{"cb_status":"U","City":"HUNTINGTON","State":"UT","description":"DEER CREEK MINE -- HUNTINGTON,UT","user_id":"PALE","CustomerName":"DEER CREEK MINE","solo_key":321992,"cb_territorty":"UTPRIC"}}
,{"type":"Feature","geometry":{"type":"Point","coordinates":[0,0]},"properties":{"cb_status":"U","City":"SCOFIELD","State":"UT","description":"CANYON FUEL CO -- SCOFIELD,UT","user_id":"PALE","CustomerName":"CANYON FUEL CO","solo_key":322109,"cb_territorty":"UTPRIC"}}
,{"type":"Feature","geometry":{"type":"Point","coordinates":[0,0]},"properties":{"cb_status":"U","City":"RICHFIELD","State":"UT","description":"RICHFIELD COURTHOUSE -- RICHFIELD,UT","user_id":"PALE","CustomerName":"RICHFIELD COURTHOUSE","solo_key":323678,"cb_territorty":"UTPRIC"}}
,{"type":"Feature","geometry":{"type":"Point","coordinates":[0,0]},"properties":{"cb_status":"U","City":"HELPER","State":"UT","description":"RUSH TRUCK CENTERS -- HELPER,UT","user_id":"PALE","CustomerName":"RUSH TRUCK CENTERS","solo_key":325703,"cb_territorty":"UTPRIC"}}
,{"type":"Feature","geometry":{"type":"Point","coordinates":[0,0]},"properties":{"cb_status":"U","City":"RICHFIELD","State":"UT","description":"JORGENSEN FORD -- RICHFIELD,UT","user_id":"PALE","CustomerName":"JORGENSEN FORD","solo_key":326031,"cb_territorty":"UTPRIC"}}
,{"type":"Feature","geometry":{"type":"Point","coordinates":[0,0]},"properties":{"cb_status":"U","City":"CASTLE DALE","State":"UT","description":"CASEY INDUSTRIAL INC -- CASTLE DALE,UT","user_id":"PALE","CustomerName":"CASEY INDUSTRIAL INC","solo_key":328921,"cb_territorty":"UTPRIC"}}
,{"type":"Feature","geometry":{"type":"Point","coordinates":[0,0]},"properties":{"cb_status":"U","City":"REDMAN","State":"UT","description":"REDMAN MINERALS -- REDMAN,UT","user_id":"PALE","CustomerName":"REDMAN MINERALS","solo_key":329585,"cb_territorty":"UTPRIC"}}
,{"type":"Feature","geometry":{"type":"Point","coordinates":[0,0]},"properties":{"cb_status":"U","City":"PRICE","State":"UT","description":"MURRAY- LILA CANYON MINE -- PRICE,UT","user_id":"PALE","CustomerName":"MURRAY- LILA CANYON MINE","solo_key":330961,"cb_territorty":"UTPRIC"}}
,{"type":"Feature","geometry":{"type":"Point","coordinates":[0,0]},"properties":{"cb_status":"H","City":"RICHFIELD","State":"UT","description":"E C SOURCE -- RICHFIELD,UT","user_id":"PALE","CustomerName":"E C SOURCE","solo_key":341842,"cb_territorty":"UTPRIC"}}
]}
