{"name":"dbo.GeoObjViewCustomers","type":"FeatureCollection"
,"features":[
{"type":"Feature","geometry":{"type":"Point","coordinates":[-105.000876,39.913736]},"properties":{"cb_status":"U","City":"WESTMINSTER","State":"CO","description":"AVAYA COMMUNICATIONS -- WESTMINSTER,CO","user_id":"DAWS","CustomerName":"AVAYA COMMUNICATIONS","solo_key":23,"cb_territorty":"COBROO"}}
,{"type":"Feature","geometry":{"type":"Point","coordinates":[-105.061544,39.797676]},"properties":{"cb_status":"U","City":"ARVADA","State":"CO","description":"T D AND W -- ARVADA,CO","user_id":"DAWS","CustomerName":"T D AND W","solo_key":32,"cb_territorty":"COARVA"}}
,{"type":"Feature","geometry":{"type":"Point","coordinates":[-105.02938,40.566553]},"properties":{"cb_status":"U","City":"FT COLLINS","State":"CO","description":"ADVANCED ENERGY INDUSTRIES -- FT COLLINS,CO","user_id":"DAWS","CustomerName":"ADVANCED ENERGY INDUSTRIES","solo_key":53,"cb_territorty":"COCOLL"}}
,{"type":"Feature","geometry":{"type":"Point","coordinates":[-104.923116,40.130978]},"properties":{"cb_status":"C","City":"FIRESTONE","State":"CO","description":"ADVANCED FORMING -- FIRESTONE,CO","user_id":"DAWS","CustomerName":"ADVANCED FORMING","solo_key":54,"cb_territorty":"COLONG"}}
,{"type":"Feature","geometry":{"type":"Point","coordinates":[-105.225176,40.004528]},"properties":{"cb_status":"U","City":"BOULDER","State":"CO","description":"CABLE TELEVISION SERVICE -- BOULDER,CO","user_id":"DAWS","CustomerName":"CABLE TELEVISION SERVICE","solo_key":56,"cb_territorty":"COBOUL"}}
,{"type":"Feature","geometry":{"type":"Point","coordinates":[-105.076624,40.521433]},"properties":{"cb_status":"U","City":"FT COLLINS","State":"CO","description":"AERO METRIC ENGINEERING -- FT COLLINS,CO","user_id":"DAWS","CustomerName":"AERO METRIC ENGINEERING","solo_key":59,"cb_territorty":"COCOLL"}}
,{"type":"Feature","geometry":{"type":"Point","coordinates":[-105.156884,40.000237]},"properties":{"cb_status":"U","City":"BOULDER","State":"CO","description":"A I R INC -- BOULDER,CO","user_id":"DAWS","CustomerName":"A I R INC","solo_key":67,"cb_territorty":"COBOUL"}}
,{"type":"Feature","geometry":{"type":"Point","coordinates":[-112.02078,33.412649]},"properties":{"cb_status":"U","City":"PHOENIX","State":"AZ","description":"AMERICAN AEROSPACE -- PHOENIX,AZ","user_id":"DAWS","CustomerName":"AMERICAN AEROSPACE","solo_key":113,"cb_territorty":"AZPHX"}}
,{"type":"Feature","geometry":{"type":"Point","coordinates":[-105.09522,39.92285]},"properties":{"cb_status":"U","City":"BROOMFIELD","State":"CO","description":"TRELLEBORG SEALING SOLUTIONS -- BROOMFIELD,CO","user_id":"DAWS","CustomerName":"TRELLEBORG SEALING SOLUTIONS","solo_key":134,"cb_territorty":"COBROO"}}
,{"type":"Feature","geometry":{"type":"Point","coordinates":[-105.0019,40.617753]},"properties":{"cb_status":"F","City":"FORT COLLINS","State":"CO","description":"ANHEUSER BUSCH INCORPORATED -- FORT COLLINS,CO","user_id":"DAWS","CustomerName":"ANHEUSER BUSCH INCORPORATED","solo_key":165,"cb_territorty":"COCOLL"}}
,{"type":"Feature","geometry":{"type":"Point","coordinates":[-111.945535,33.33185]},"properties":{"cb_status":"U","City":"TEMPE","State":"AZ","description":"ANIXTER INC -- TEMPE,AZ","user_id":"DAWS","CustomerName":"ANIXTER INC","solo_key":170,"cb_territorty":"AZPHX"}}
,{"type":"Feature","geometry":{"type":"Point","coordinates":[-104.982967,39.913863]},"properties":{"cb_status":"U","City":"NORTHGLENN","State":"CO","description":"ARGO INTERNATIONAL -- NORTHGLENN,CO","user_id":"DAWS","CustomerName":"ARGO INTERNATIONAL","solo_key":196,"cb_territorty":"COBROO"}}
,{"type":"Feature","geometry":{"type":"Point","coordinates":[-110.286161,31.950663]},"properties":{"cb_status":"U","City":"BENSON","State":"AZ","description":"ARIZONA PUBLIC SERVICE CO -- BENSON,AZ","user_id":"DAWS","CustomerName":"ARIZONA PUBLIC SERVICE CO","solo_key":199,"cb_territorty":"AZ"}}
,{"type":"Feature","geometry":{"type":"Point","coordinates":[-112.104483,33.578263]},"properties":{"cb_status":"U","City":"PHOENIX","State":"AZ","description":"ARIZONA PUBLIC SERVICE -- PHOENIX,AZ","user_id":"DAWS","CustomerName":"ARIZONA PUBLIC SERVICE","solo_key":201,"cb_territorty":"AZPHX"}}
,{"type":"Feature","geometry":{"type":"Point","coordinates":[-105.070805,40.385737]},"properties":{"cb_status":"U","City":"LOVELAND","State":"CO","description":"ART CASTINGS OF COLORADO -- LOVELAND,CO","user_id":"DAWS","CustomerName":"ART CASTINGS OF COLORADO","solo_key":215,"cb_territorty":"COLOVE"}}
,{"type":"Feature","geometry":{"type":"Point","coordinates":[-105.067478,39.800354]},"properties":{"cb_status":"G","City":"ARVADA","State":"CO","description":"ARVADA PUMP -- ARVADA,CO","user_id":"DAWS","CustomerName":"ARVADA PUMP","solo_key":217,"cb_territorty":"COARVA"}}
,{"type":"Feature","geometry":{"type":"Point","coordinates":[-110.7844,33.0069]},"properties":{"cb_status":"H","City":"HAYDEN","State":"AZ","description":"ASARCO -- HAYDEN,AZ","user_id":"DAWS","CustomerName":"ASARCO","solo_key":220,"cb_territorty":"AZPHX"}}
,{"type":"Feature","geometry":{"type":"Point","coordinates":[-111.000915,32.001079]},"properties":{"cb_status":"H","City":"SAHUARITA","State":"AZ","description":"ASARCO -- SAHUARITA,AZ","user_id":"DAWS","CustomerName":"ASARCO","solo_key":223,"cb_territorty":"AZ"}}
,{"type":"Feature","geometry":{"type":"Point","coordinates":[-104.687822,40.447788]},"properties":{"cb_status":"U","City":"GREELEY","State":"CO","description":"DUKE ENERGY -- GREELEY,CO","user_id":"DAWS","CustomerName":"DUKE ENERGY","solo_key":234,"cb_territorty":"COGREE"}}
,{"type":"Feature","geometry":{"type":"Point","coordinates":[-105.076279,40.308352]},"properties":{"cb_status":"U","City":"BERTHOUD","State":"CO","description":"ASSOCIATED THERMOFORMING INC -- BERTHOUD,CO","user_id":"DAWS","CustomerName":"ASSOCIATED THERMOFORMING INC","solo_key":235,"cb_territorty":"COLOVE"}}
,{"type":"Feature","geometry":{"type":"Point","coordinates":[-105.074251,40.351203]},"properties":{"cb_status":"U","City":"LOVELAND","State":"CO","description":"FRONT RANGE -- LOVELAND,CO","user_id":"DAWS","CustomerName":"FRONT RANGE","solo_key":245,"cb_territorty":"COLOVE"}}
,{"type":"Feature","geometry":{"type":"Point","coordinates":[-104.97772,39.92302]},"properties":{"cb_status":"U","City":"DENVER","State":"CO","description":"AUTO TROL TECHNOLOGY -- DENVER,CO","user_id":"DAWS","CustomerName":"AUTO TROL TECHNOLOGY","solo_key":247,"cb_territorty":"COBROO"}}
,{"type":"Feature","geometry":{"type":"Point","coordinates":[-104.981058,39.918067]},"properties":{"cb_status":"U","City":"THORNTON","State":"CO","description":"AUTOMATED CONTROLS INC -- THORNTON,CO","user_id":"DAWS","CustomerName":"AUTOMATED CONTROLS INC","solo_key":248,"cb_territorty":"COBROO"}}
,{"type":"Feature","geometry":{"type":"Point","coordinates":[-105.113379,40.151034]},"properties":{"cb_status":"U","City":"LONGMONT","State":"CO","description":"AVEDON -- LONGMONT,CO","user_id":"DAWS","CustomerName":"AVEDON","solo_key":252,"cb_territorty":"COLONG"}}
,{"type":"Feature","geometry":{"type":"Point","coordinates":[-105.149014,39.776656]},"properties":{"cb_status":"U","City":"GOLDEN","State":"CO","description":"B F SALES ENGINEERING INC -- GOLDEN,CO","user_id":"DAWS","CustomerName":"B F SALES ENGINEERING INC","solo_key":260,"cb_territorty":"COARVA"}}
,{"type":"Feature","geometry":{"type":"Point","coordinates":[-105.048572,40.520729]},"properties":{"cb_status":"G","City":"FORT COLLINS","State":"CO","description":"BAKER ELECTRICAL INSTRUMENT -- FORT COLLINS,CO","user_id":"DAWS","CustomerName":"BAKER ELECTRICAL INSTRUMENT","solo_key":289,"cb_territorty":"COCOLL"}}
,{"type":"Feature","geometry":{"type":"Point","coordinates":[-105.23182,40.014937]},"properties":{"cb_status":"U","City":"BOULDER","State":"CO","description":"BALL AEROSPACE -- BOULDER,CO","user_id":"DAWS","CustomerName":"BALL AEROSPACE","solo_key":303,"cb_territorty":"COBOUL"}}
,{"type":"Feature","geometry":{"type":"Point","coordinates":[-105.165578,39.779374]},"properties":{"cb_status":"G","City":"GOLDEN","State":"CO","description":"BALL CORPORATION -- GOLDEN,CO","user_id":"DAWS","CustomerName":"BALL CORPORATION","solo_key":305,"cb_territorty":"COARVA"}}
,{"type":"Feature","geometry":{"type":"Point","coordinates":[-105.066422,39.796437]},"properties":{"cb_status":"F","City":"ARVADA","State":"CO","description":"BARBER NICHOLS -- ARVADA,CO","user_id":"DAWS","CustomerName":"BARBER NICHOLS","solo_key":310,"cb_territorty":"COARVA"}}
,{"type":"Feature","geometry":{"type":"Point","coordinates":[-95.8701412,40.9205814]},"properties":{"cb_status":"U","City":"LYONS","State":"CO","description":"BASELINE INDUSTRIES -- LYONS,CO","user_id":"DAWS","CustomerName":"BASELINE INDUSTRIES","solo_key":319,"cb_territorty":"COBOUL"}}
,{"type":"Feature","geometry":{"type":"Point","coordinates":[-104.981378,40.122158]},"properties":{"cb_status":"G","City":"FREDERICK","State":"CO","description":"BECK SALES INC -- FREDERICK,CO","user_id":"DAWS","CustomerName":"BECK SALES INC","solo_key":355,"cb_territorty":"COLONG"}}
,{"type":"Feature","geometry":{"type":"Point","coordinates":[-105.247575,40.022417]},"properties":{"cb_status":"U","City":"LONGMONT","State":"CO","description":"HOLDEN MARKETING -- LONGMONT,CO","user_id":"DAWS","CustomerName":"HOLDEN MARKETING","solo_key":358,"cb_territorty":"COLONG"}}
,{"type":"Feature","geometry":{"type":"Point","coordinates":[-105.093228,39.922129]},"properties":{"cb_status":"U","City":"BROOMFIELD","State":"CO","description":"BESTOP -- BROOMFIELD,CO","user_id":"DAWS","CustomerName":"BESTOP","solo_key":371,"cb_territorty":"COBROO"}}
,{"type":"Feature","geometry":{"type":"Point","coordinates":[-105.109508,39.966613]},"properties":{"cb_status":"U","City":"LOUISVILLE","State":"CO","description":"INVERNESS -- LOUISVILLE,CO","user_id":"DAWS","CustomerName":"INVERNESS","solo_key":386,"cb_territorty":"COBOUL"}}
,{"type":"Feature","geometry":{"type":"Point","coordinates":[-105.065604,39.796163]},"properties":{"cb_status":"E","City":"ARVADA","State":"CO","description":"BLACKHAWK EQUIPMENT -- ARVADA,CO","user_id":"DAWS","CustomerName":"BLACKHAWK EQUIPMENT","solo_key":398,"cb_territorty":"COARVA"}}
,{"type":"Feature","geometry":{"type":"Point","coordinates":[-105.255856,40.02859]},"properties":{"cb_status":"U","City":"BOULDER","State":"CO","description":"BLUE MOUNTAIN ARTS -- BOULDER,CO","user_id":"DAWS","CustomerName":"BLUE MOUNTAIN ARTS","solo_key":405,"cb_territorty":"COBOUL"}}
,{"type":"Feature","geometry":{"type":"Point","coordinates":[-104.678066,40.38781]},"properties":{"cb_status":"F","City":"GREELEY","State":"CO","description":"BREWER STEEL -- GREELEY,CO","user_id":"DAWS","CustomerName":"BREWER STEEL","solo_key":441,"cb_territorty":"COGREE"}}
,{"type":"Feature","geometry":{"type":"Point","coordinates":[-105.246516,40.030874]},"properties":{"cb_status":"U","City":"BOULDER","State":"CO","description":"CAREER TRACK -- BOULDER,CO","user_id":"DAWS","CustomerName":"CAREER TRACK","solo_key":516,"cb_territorty":"COBOUL"}}
,{"type":"Feature","geometry":{"type":"Point","coordinates":[-105.096942,39.927535]},"properties":{"cb_status":"U","City":"BROOMFIELD","State":"CO","description":"CAREFREE OF COLORADO -- BROOMFIELD,CO","user_id":"DAWS","CustomerName":"CAREFREE OF COLORADO","solo_key":517,"cb_territorty":"COBROO"}}
,{"type":"Feature","geometry":{"type":"Point","coordinates":[-105.1403319,40.1378903]},"properties":{"cb_status":"U","City":"LONGMONT","State":"CO","description":"CASE LOGIC -- LONGMONT,CO","user_id":"DAWS","CustomerName":"CASE LOGIC","solo_key":528,"cb_territorty":"COBOUL"}}
,{"type":"Feature","geometry":{"type":"Point","coordinates":[-105.217578,40.059337]},"properties":{"cb_status":"U","City":"BOULDER","State":"CO","description":"CELESTIAL SEASONINGS -- BOULDER,CO","user_id":"DAWS","CustomerName":"CELESTIAL SEASONINGS","solo_key":567,"cb_territorty":"COBOUL"}}
,{"type":"Feature","geometry":{"type":"Point","coordinates":[-114.2733658,35.2246822]},"properties":{"cb_status":"U","City":"KINGMAN","State":"AZ","description":"CENTRAL PRINTING -- KINGMAN,AZ","user_id":"DAWS","CustomerName":"CENTRAL PRINTING","solo_key":578,"cb_territorty":"AZ"}}
,{"type":"Feature","geometry":{"type":"Point","coordinates":[-109.874851,32.282743]},"properties":{"cb_status":"U","City":"WILCOX","State":"AZ","description":"RIP GRIFFEN TRUCK STOP -- WILCOX,AZ","user_id":"DAWS","CustomerName":"RIP GRIFFEN TRUCK STOP","solo_key":601,"cb_territorty":"AZ"}}
,{"type":"Feature","geometry":{"type":"Point","coordinates":[-111.0121053,32.2783786]},"properties":{"cb_status":"U","City":"TUCSON","State":"AZ","description":"RECYCLE -- TUCSON,AZ","user_id":"DAWS","CustomerName":"RECYCLE","solo_key":615,"cb_territorty":"AZTUS"}}
,{"type":"Feature","geometry":{"type":"Point","coordinates":[-105.2077798,40.0406506]},"properties":{"cb_status":"U","City":"BOULDER","State":"CO","description":"C I R R E S  UNIVERSITY OF COLORADO -- BOULDER,CO","user_id":"DAWS","CustomerName":"C I R R E S  UNIVERSITY OF COLORADO","solo_key":622,"cb_territorty":"COBOUL"}}
,{"type":"Feature","geometry":{"type":"Point","coordinates":[-105.0519,40.588545]},"properties":{"cb_status":"H","City":"FORT COLLINS","State":"CO","description":"CITIZEN PRINTING -- FORT COLLINS,CO","user_id":"DAWS","CustomerName":"CITIZEN PRINTING","solo_key":623,"cb_territorty":"COCOLL"}}
,{"type":"Feature","geometry":{"type":"Point","coordinates":[-104.993895,40.450695]},"properties":{"cb_status":"U","City":"LOVELAND","State":"CO","description":"COLLINS PLATING CORP -- LOVELAND,CO","user_id":"DAWS","CustomerName":"COLLINS PLATING CORP","solo_key":657,"cb_territorty":"COLOVE"}}
,{"type":"Feature","geometry":{"type":"Point","coordinates":[-104.678353,40.418186]},"properties":{"cb_status":"U","City":"GREELEY","State":"CO","description":"COLORADO KENWORTH INCORPORATED -- GREELEY,CO","user_id":"DAWS","CustomerName":"COLORADO KENWORTH INCORPORATED","solo_key":668,"cb_territorty":"COGREE"}}
,{"type":"Feature","geometry":{"type":"Point","coordinates":[-103.62389,40.24028]},"properties":{"cb_status":"H","City":"BRUSH","State":"CO","description":"COLORADO ENERGY MANAGEMENT -- BRUSH,CO","user_id":"DAWS","CustomerName":"COLORADO ENERGY MANAGEMENT","solo_key":673,"cb_territorty":"COMORG"}}
,{"type":"Feature","geometry":{"type":"Point","coordinates":[-112.182736,33.4368]},"properties":{"cb_status":"U","City":"PHOENIX","State":"AZ","description":"GREAT WIDE TOTAL WAREHOUSING -- PHOENIX,AZ","user_id":"DAWS","CustomerName":"GREAT WIDE TOTAL WAREHOUSING","solo_key":674,"cb_territorty":"AZPHX"}}
,{"type":"Feature","geometry":{"type":"Point","coordinates":[-102.789734,46.91417]},"properties":{"cb_status":"U","City":"DICKINSON","State":"ND","description":"COMPRESSOR SYSTEMS -- DICKINSON,ND","user_id":"DAWS","CustomerName":"COMPRESSOR SYSTEMS","solo_key":712,"cb_territorty":"ND"}}
,{"type":"Feature","geometry":{"type":"Point","coordinates":[-105.045095,40.585575]},"properties":{"cb_status":"U","City":"FORT COLLINS","State":"CO","description":"C E D -- FORT COLLINS,CO","user_id":"DAWS","CustomerName":"C E D","solo_key":731,"cb_territorty":"COCOLL"}}
,{"type":"Feature","geometry":{"type":"Point","coordinates":[-104.931587,39.866621]},"properties":{"cb_status":"U","City":"THORNTON","State":"CO","description":"COOLEY GRAVEL -- THORNTON,CO","user_id":"DAWS","CustomerName":"COOLEY GRAVEL","solo_key":751,"cb_territorty":"COWEST"}}
,{"type":"Feature","geometry":{"type":"Point","coordinates":[-104.9340518,40.3353135]},"properties":{"cb_status":"U","City":"JOHNSTOWN","State":"CO","description":"COLORADO SWEET GOLD LLC -- JOHNSTOWN,CO","user_id":"DAWS","CustomerName":"COLORADO SWEET GOLD LLC","solo_key":774,"cb_territorty":"COLOVE"}}
,{"type":"Feature","geometry":{"type":"Point","coordinates":[-112.276674,33.453073]},"properties":{"cb_status":"E","City":"AVONDALE","State":"AZ","description":"CUMMINS ROCKY MOUNTAIN -- AVONDALE,AZ","user_id":"DAWS","CustomerName":"CUMMINS ROCKY MOUNTAIN","solo_key":828,"cb_territorty":"AZPHX"}}
,{"type":"Feature","geometry":{"type":"Point","coordinates":[-105.064734,39.794474]},"properties":{"cb_status":"U","City":"ARVADA","State":"CO","description":"CUSTOM MOLDING INC -- ARVADA,CO","user_id":"DAWS","CustomerName":"CUSTOM MOLDING INC","solo_key":841,"cb_territorty":"COARVA"}}
,{"type":"Feature","geometry":{"type":"Point","coordinates":[-113.175412,34.568392]},"properties":{"cb_status":"A","City":"BAGDAD","State":"AZ","description":"FREEPORT MCMORAN -- BAGDAD,AZ","user_id":"DAWS","CustomerName":"FREEPORT MCMORAN","solo_key":845,"cb_territorty":"AZ"}}
,{"type":"Feature","geometry":{"type":"Point","coordinates":[-110.8524,33.40875]},"properties":{"cb_status":"G","City":"CLAYPOOL","State":"AZ","description":"FREEPORT MCMORAN -- CLAYPOOL,AZ","user_id":"DAWS","CustomerName":"FREEPORT MCMORAN","solo_key":848,"cb_territorty":"AZ"}}
,{"type":"Feature","geometry":{"type":"Point","coordinates":[-111.098049,31.872367]},"properties":{"cb_status":"B","City":"GREEN VALLEY","State":"AZ","description":"FREEPORT MCMORAN SIERRITA -- GREEN VALLEY,AZ","user_id":"DAWS","CustomerName":"FREEPORT MCMORAN SIERRITA","solo_key":855,"cb_territorty":"AZ"}}
,{"type":"Feature","geometry":{"type":"Point","coordinates":[-105.255298,40.022815]},"properties":{"cb_status":"U","City":"BOULDER","State":"CO","description":"D AND K PRINTING -- BOULDER,CO","user_id":"DAWS","CustomerName":"D AND K PRINTING","solo_key":860,"cb_territorty":"COBOUL"}}
,{"type":"Feature","geometry":{"type":"Point","coordinates":[-105.177404,40.088715]},"properties":{"cb_status":"U","City":"NIWOT","State":"CO","description":"FLEXTRONICS -- NIWOT,CO","user_id":"DAWS","CustomerName":"FLEXTRONICS","solo_key":865,"cb_territorty":"COBOUL"}}
,{"type":"Feature","geometry":{"type":"Point","coordinates":[-120.8546439,38.6824364]},"properties":{"cb_status":"U","City":"EL DORADO","State":"CO","description":"DATA DISPLAY -- EL DORADO,CO","user_id":"DAWS","CustomerName":"DATA DISPLAY","solo_key":881,"cb_territorty":"COBOUL"}}
,{"type":"Feature","geometry":{"type":"Point","coordinates":[-105.004075,39.921332]},"properties":{"cb_status":"U","City":"WESTMINSTER","State":"CO","description":"DATA RAY CORPORATION -- WESTMINSTER,CO","user_id":"DAWS","CustomerName":"DATA RAY CORPORATION","solo_key":889,"cb_territorty":"COBROO"}}
,{"type":"Feature","geometry":{"type":"Point","coordinates":[-104.891628,40.466542]},"properties":{"cb_status":"U","City":"WINDSOR","State":"CO","description":"PACKAGING CORPORATION OF AMERICA -- WINDSOR,CO","user_id":"DAWS","CustomerName":"PACKAGING CORPORATION OF AMERICA","solo_key":900,"cb_territorty":"COCOLL"}}
,{"type":"Feature","geometry":{"type":"Point","coordinates":[-105.169823,39.77615]},"properties":{"cb_status":"D","City":"GOLDEN","State":"CO","description":"DENVER INDUSTRIAL PUMPS INC -- GOLDEN,CO","user_id":"DAWS","CustomerName":"DENVER INDUSTRIAL PUMPS INC","solo_key":914,"cb_territorty":"COARVA"}}
,{"type":"Feature","geometry":{"type":"Point","coordinates":[-105.15824,39.815045]},"properties":{"cb_status":"U","City":"ARVADA","State":"CO","description":"DENVER INSTRUMENTS MOVED TO DENVER -- ARVADA,CO","user_id":"DAWS","CustomerName":"DENVER INSTRUMENTS MOVED TO DENVER","solo_key":915,"cb_territorty":"COARVA"}}
,{"type":"Feature","geometry":{"type":"Point","coordinates":[-105.188232,40.078293]},"properties":{"cb_status":"H","City":"BOULDER","State":"CO","description":"DIETERICH STANDARD -- BOULDER,CO","user_id":"DAWS","CustomerName":"DIETERICH STANDARD","solo_key":946,"cb_territorty":"COBOUL"}}
,{"type":"Feature","geometry":{"type":"Point","coordinates":[-104.979799,40.139201]},"properties":{"cb_status":"U","City":"LONGMONT","State":"CO","description":"APPLIED FILMS CORPORATION -- LONGMONT,CO","user_id":"DAWS","CustomerName":"APPLIED FILMS CORPORATION","solo_key":965,"cb_territorty":"COLONG"}}
,{"type":"Feature","geometry":{"type":"Point","coordinates":[-111.998585,33.399893]},"properties":{"cb_status":"U","City":"PHOENIX","State":"AZ","description":"BOART LONGYEAR -- PHOENIX,AZ","user_id":"DAWS","CustomerName":"BOART LONGYEAR","solo_key":1004,"cb_territorty":"AZPHX"}}
,{"type":"Feature","geometry":{"type":"Point","coordinates":[-112.111241,33.429654]},"properties":{"cb_status":"D","City":"PHOENIX","State":"AZ","description":"SULZER E M S -- PHOENIX,AZ","user_id":"DAWS","CustomerName":"SULZER E M S","solo_key":1038,"cb_territorty":"AZPHX"}}
,{"type":"Feature","geometry":{"type":"Point","coordinates":[-105.15822,39.817276]},"properties":{"cb_status":"U","City":"ARVADA","State":"CO","description":"EASTER OWENS -- ARVADA,CO","user_id":"DAWS","CustomerName":"EASTER OWENS","solo_key":1048,"cb_territorty":"COARVA"}}
,{"type":"Feature","geometry":{"type":"Point","coordinates":[-104.871443,40.465063]},"properties":{"cb_status":"U","City":"WINDSOR","State":"CO","description":"EASTMAN KODAK -- WINDSOR,CO","user_id":"DAWS","CustomerName":"EASTMAN KODAK","solo_key":1055,"cb_territorty":"COCOLL"}}
,{"type":"Feature","geometry":{"type":"Point","coordinates":[-105.0937566,39.9230333]},"properties":{"cb_status":"U","City":"BROOMFIELD","State":"CO","description":"ELECTRIC WIRE -- BROOMFIELD,CO","user_id":"DAWS","CustomerName":"ELECTRIC WIRE","solo_key":1084,"cb_territorty":"COBROO"}}
,{"type":"Feature","geometry":{"type":"Point","coordinates":[-105.067478,39.803887]},"properties":{"cb_status":"U","City":"ARVADA","State":"CO","description":"ELECTRICAL OUTLET -- ARVADA,CO","user_id":"DAWS","CustomerName":"ELECTRICAL OUTLET","solo_key":1088,"cb_territorty":"COARVA"}}
,{"type":"Feature","geometry":{"type":"Point","coordinates":[-104.98722,39.82593]},"properties":{"cb_status":"F","City":"DENVER","State":"CO","description":"ELECTRICAL RELIABILITY SERVICE -- DENVER,CO","user_id":"DAWS","CustomerName":"ELECTRICAL RELIABILITY SERVICE","solo_key":1091,"cb_territorty":"COWEST"}}
,{"type":"Feature","geometry":{"type":"Point","coordinates":[-105.04602,40.522064]},"properties":{"cb_status":"U","City":"FT COLLINS","State":"CO","description":"A B B FLEXIBLE AUTOMATION INC -- FT COLLINS,CO","user_id":"DAWS","CustomerName":"A B B FLEXIBLE AUTOMATION INC","solo_key":1142,"cb_territorty":"COCOLL"}}
,{"type":"Feature","geometry":{"type":"Point","coordinates":[-103.778435,40.24685]},"properties":{"cb_status":"B","City":"FORT MORGAN","State":"CO","description":"CARGILL MEAT SOLUTIONS -- FORT MORGAN,CO","user_id":"DAWS","CustomerName":"CARGILL MEAT SOLUTIONS","solo_key":1160,"cb_territorty":"COMORG"}}
,{"type":"Feature","geometry":{"type":"Point","coordinates":[-105.202378,40.072995]},"properties":{"cb_status":"U","City":"BOULDER","State":"CO","description":"D M C CLAD METAL -- BOULDER,CO","user_id":"DAWS","CustomerName":"D M C CLAD METAL","solo_key":1165,"cb_territorty":"COBOUL"}}
,{"type":"Feature","geometry":{"type":"Point","coordinates":[-105.15742,40.117625]},"properties":{"cb_status":"U","City":"LONGMONT","State":"CO","description":"UNITED WOOD PRODUCTS -- LONGMONT,CO","user_id":"DAWS","CustomerName":"UNITED WOOD PRODUCTS","solo_key":1181,"cb_territorty":"COBOUL"}}
,{"type":"Feature","geometry":{"type":"Point","coordinates":[-103.623705,48.170973]},"properties":{"cb_status":"U","City":"WILLISTON","State":"ND","description":"FALCON PUMP AND SUPPLY -- WILLISTON,ND","user_id":"DAWS","CustomerName":"FALCON PUMP AND SUPPLY","solo_key":1191,"cb_territorty":"ND"}}
,{"type":"Feature","geometry":{"type":"Point","coordinates":[-104.819979,40.217264]},"properties":{"cb_status":"U","City":"PLATTEVILLE","State":"CO","description":"FARLEYS MACHINE -- PLATTEVILLE,CO","user_id":"DAWS","CustomerName":"FARLEYS MACHINE","solo_key":1199,"cb_territorty":"COGREE"}}
,{"type":"Feature","geometry":{"type":"Point","coordinates":[-105.169278,39.820015]},"properties":{"cb_status":"U","City":"ARVADA","State":"CO","description":"FAUSTSON TOOL -- ARVADA,CO","user_id":"DAWS","CustomerName":"FAUSTSON TOOL","solo_key":1207,"cb_territorty":"COARVA"}}
,{"type":"Feature","geometry":{"type":"Point","coordinates":[-103.820072,40.254137]},"properties":{"cb_status":"U","City":"FORT MORGAN","State":"CO","description":"ROOSTER DRILLING -- FORT MORGAN,CO","user_id":"DAWS","CustomerName":"ROOSTER DRILLING","solo_key":1215,"cb_territorty":"COMORG"}}
,{"type":"Feature","geometry":{"type":"Point","coordinates":[-105.13782,39.79219]},"properties":{"cb_status":"G","City":"ARVADA","State":"CO","description":"FIERO FLUID POWER -- ARVADA,CO","user_id":"DAWS","CustomerName":"FIERO FLUID POWER","solo_key":1216,"cb_territorty":"COARVA"}}
,{"type":"Feature","geometry":{"type":"Point","coordinates":[-105.097045,39.921333]},"properties":{"cb_status":"U","City":"BROOMFIELD","State":"CO","description":"FUSION SPECIALTIES INC -- BROOMFIELD,CO","user_id":"DAWS","CustomerName":"FUSION SPECIALTIES INC","solo_key":1289,"cb_territorty":"COBROO"}}
,{"type":"Feature","geometry":{"type":"Point","coordinates":[-111.978299,33.401008]},"properties":{"cb_status":"U","City":"PHOENIX","State":"AZ","description":"CAPITOL METALS -- PHOENIX,AZ","user_id":"DAWS","CustomerName":"CAPITOL METALS","solo_key":1295,"cb_territorty":"AZPHX"}}
,{"type":"Feature","geometry":{"type":"Point","coordinates":[-112.049851,33.413863]},"properties":{"cb_status":"U","City":"PHOENIX","State":"AZ","description":"GILBERT PUMP -- PHOENIX,AZ","user_id":"DAWS","CustomerName":"GILBERT PUMP","solo_key":1365,"cb_territorty":"AZPHX"}}
,{"type":"Feature","geometry":{"type":"Point","coordinates":[-104.994417,40.448837]},"properties":{"cb_status":"C","City":"LOVELAND","State":"CO","description":"FLEETWOOD GOLDCO -- LOVELAND,CO","user_id":"DAWS","CustomerName":"FLEETWOOD GOLDCO","solo_key":1377,"cb_territorty":"COLOVE"}}
,{"type":"Feature","geometry":{"type":"Point","coordinates":[-105.165578,39.781247]},"properties":{"cb_status":"U","City":"GOLDEN","State":"CO","description":"HAZEN RESEARCH -- GOLDEN,CO","user_id":"DAWS","CustomerName":"HAZEN RESEARCH","solo_key":1482,"cb_territorty":"COARVA"}}
,{"type":"Feature","geometry":{"type":"Point","coordinates":[-112.087176,33.429252]},"properties":{"cb_status":"U","City":"PHOENIX","State":"AZ","description":"ESCO SUPPLY -- PHOENIX,AZ","user_id":"DAWS","CustomerName":"ESCO SUPPLY","solo_key":1491,"cb_territorty":"AZPHX"}}
,{"type":"Feature","geometry":{"type":"Point","coordinates":[-105.228892,40.028062]},"properties":{"cb_status":"F","City":"BOULDER","State":"CO","description":"M K S INSTRUMENTS -- BOULDER,CO","user_id":"DAWS","CustomerName":"M K S INSTRUMENTS","solo_key":1556,"cb_territorty":"COBOUL"}}
,{"type":"Feature","geometry":{"type":"Point","coordinates":[-105.109999,39.927586]},"properties":{"cb_status":"U","City":"BROOMFIELD","State":"CO","description":"HUNTER DOUGLAS INC -- BROOMFIELD,CO","user_id":"DAWS","CustomerName":"HUNTER DOUGLAS INC","solo_key":1565,"cb_territorty":"COBROO"}}
,{"type":"Feature","geometry":{"type":"Point","coordinates":[-109.770027,32.849337]},"properties":{"cb_status":"U","City":"THATCHER","State":"AZ","description":"ALLEN PUMP CO -- THATCHER,AZ","user_id":"DAWS","CustomerName":"ALLEN PUMP CO","solo_key":1572,"cb_territorty":"AZ"}}
,{"type":"Feature","geometry":{"type":"Point","coordinates":[-104.967679,39.821808]},"properties":{"cb_status":"H","City":"DENVER","State":"CO","description":"IMPERIAL MACHINING CO -- DENVER,CO","user_id":"DAWS","CustomerName":"IMPERIAL MACHINING CO","solo_key":1592,"cb_territorty":"COWEST"}}
,{"type":"Feature","geometry":{"type":"Point","coordinates":[-105.17901,39.784597]},"properties":{"cb_status":"E","City":"GOLDEN","State":"CO","description":"JOHN CRANE INC -- GOLDEN,CO","user_id":"DAWS","CustomerName":"JOHN CRANE INC","solo_key":1708,"cb_territorty":"COARVA"}}
,{"type":"Feature","geometry":{"type":"Point","coordinates":[-110.952763,32.172492]},"properties":{"cb_status":"D","City":"TUCSON","State":"AZ","description":"KAMAN INDUSTRIAL TECHNOLOGIES -- TUCSON,AZ","user_id":"DAWS","CustomerName":"KAMAN INDUSTRIAL TECHNOLOGIES","solo_key":1753,"cb_territorty":"AZTUS"}}
,{"type":"Feature","geometry":{"type":"Point","coordinates":[-105.029099,40.583393]},"properties":{"cb_status":"G","City":"FT COLLINS","State":"CO","description":"KAMAN INDUSTRIAL TECHNOLOGIES -- FT COLLINS,CO","user_id":"DAWS","CustomerName":"KAMAN INDUSTRIAL TECHNOLOGIES","solo_key":1757,"cb_territorty":"COCOLL"}}
,{"type":"Feature","geometry":{"type":"Point","coordinates":[-111.930895,33.418259]},"properties":{"cb_status":"U","City":"TEMPE","State":"AZ","description":"SCHNABEL FOUNDATIONS -- TEMPE,AZ","user_id":"DAWS","CustomerName":"SCHNABEL FOUNDATIONS","solo_key":1803,"cb_territorty":"AZPHX"}}
,{"type":"Feature","geometry":{"type":"Point","coordinates":[-112.226748,33.56663]},"properties":{"cb_status":"U","City":"PEORIA","State":"AZ","description":"OAK CRAFT INC -- PEORIA,AZ","user_id":"DAWS","CustomerName":"OAK CRAFT INC","solo_key":1834,"cb_territorty":"AZPHX"}}
,{"type":"Feature","geometry":{"type":"Point","coordinates":[-105.06763,39.86106]},"properties":{"cb_status":"U","City":"WESTMINSTER","State":"CO","description":"COLORADO LITHO INC -- WESTMINSTER,CO","user_id":"DAWS","CustomerName":"COLORADO LITHO INC","solo_key":1839,"cb_territorty":"COARVA"}}
,{"type":"Feature","geometry":{"type":"Point","coordinates":[-111.082242,32.350867]},"properties":{"cb_status":"G","City":"TUCSON","State":"AZ","description":"F L SMIDTH KREBS -- TUCSON,AZ","user_id":"DAWS","CustomerName":"F L SMIDTH KREBS","solo_key":1846,"cb_territorty":"AZTUS"}}
,{"type":"Feature","geometry":{"type":"Point","coordinates":[-105.121308,39.95911]},"properties":{"cb_status":"U","City":"LOUISVILLE","State":"CO","description":"KRYPTONICS ROLLERBLADE DIVISION -- LOUISVILLE,CO","user_id":"DAWS","CustomerName":"KRYPTONICS ROLLERBLADE DIVISION","solo_key":1848,"cb_territorty":"COBOUL"}}
,{"type":"Feature","geometry":{"type":"Point","coordinates":[-104.973583,39.820137]},"properties":{"cb_status":"U","City":"DENVER","State":"CO","description":"L AND M PRESSWORKS LLC -- DENVER,CO","user_id":"DAWS","CustomerName":"L AND M PRESSWORKS LLC","solo_key":1853,"cb_territorty":"COWEST"}}
,{"type":"Feature","geometry":{"type":"Point","coordinates":[-105.005084,40.585796]},"properties":{"cb_status":"U","City":"FT COLLINS","State":"CO","description":"LARIMER EQUIPMENT CO -- FT COLLINS,CO","user_id":"DAWS","CustomerName":"LARIMER EQUIPMENT CO","solo_key":1869,"cb_territorty":"COCOLL"}}
,{"type":"Feature","geometry":{"type":"Point","coordinates":[-105.212204,40.06431]},"properties":{"cb_status":"U","City":"BOULDER","State":"CO","description":"LEANING TREE -- BOULDER,CO","user_id":"DAWS","CustomerName":"LEANING TREE","solo_key":1876,"cb_territorty":"COBOUL"}}
,{"type":"Feature","geometry":{"type":"Point","coordinates":[-105.00622,39.799799]},"properties":{"cb_status":"G","City":"DENVER","State":"CO","description":"LONGERO INC -- DENVER,CO","user_id":"DAWS","CustomerName":"LONGERO INC","solo_key":1906,"cb_territorty":"COWEST"}}
,{"type":"Feature","geometry":{"type":"Point","coordinates":[-105.099643,40.160453]},"properties":{"cb_status":"U","City":"LONGMONT","State":"CO","description":"CONAGRA FOODS INC -- LONGMONT,CO","user_id":"DAWS","CustomerName":"CONAGRA FOODS INC","solo_key":1907,"cb_territorty":"COLONG"}}
,{"type":"Feature","geometry":{"type":"Point","coordinates":[-105.218174,40.023896]},"properties":{"cb_status":"U","City":"BOULDER","State":"CO","description":"MADDEN -- BOULDER,CO","user_id":"DAWS","CustomerName":"MADDEN","solo_key":1946,"cb_territorty":"COBOUL"}}
,{"type":"Feature","geometry":{"type":"Point","coordinates":[-104.97772,39.837457]},"properties":{"cb_status":"U","City":"DENVER","State":"CO","description":"MAJESTIC METALS -- DENVER,CO","user_id":"DAWS","CustomerName":"MAJESTIC METALS","solo_key":1953,"cb_territorty":"COWEST"}}
,{"type":"Feature","geometry":{"type":"Point","coordinates":[-105.044178,39.805153]},"properties":{"cb_status":"U","City":"ARVADA","State":"CO","description":"MARK VII EQUIPMENT -- ARVADA,CO","user_id":"DAWS","CustomerName":"MARK VII EQUIPMENT","solo_key":1974,"cb_territorty":"COARVA"}}
,{"type":"Feature","geometry":{"type":"Point","coordinates":[-105.109637,39.920177]},"properties":{"cb_status":"U","City":"BROOMFIELD","State":"CO","description":"MCDATA CORPORATION -- BROOMFIELD,CO","user_id":"DAWS","CustomerName":"MCDATA CORPORATION","solo_key":1999,"cb_territorty":"COBROO"}}
,{"type":"Feature","geometry":{"type":"Point","coordinates":[-104.685105,40.397063]},"properties":{"cb_status":"U","City":"GREELEY","State":"CO","description":"MEADOW GOLD DAIRY -- GREELEY,CO","user_id":"DAWS","CustomerName":"MEADOW GOLD DAIRY","solo_key":2022,"cb_territorty":"COGREE"}}
,{"type":"Feature","geometry":{"type":"Point","coordinates":[-105.003421,39.922137]},"properties":{"cb_status":"U","City":"WESTMINSTER","State":"CO","description":"MELCO EMBROIDERY SYSTEMS -- WESTMINSTER,CO","user_id":"DAWS","CustomerName":"MELCO EMBROIDERY SYSTEMS","solo_key":2028,"cb_territorty":"COBROO"}}
,{"type":"Feature","geometry":{"type":"Point","coordinates":[-104.863519,40.469441]},"properties":{"cb_status":"G","City":"WINDSOR","State":"CO","description":"METAL CONTAINER CORP -- WINDSOR,CO","user_id":"DAWS","CustomerName":"METAL CONTAINER CORP","solo_key":2047,"cb_territorty":"COCOLL"}}
,{"type":"Feature","geometry":{"type":"Point","coordinates":[-112.032563,33.445475]},"properties":{"cb_status":"U","City":"PHOENIX","State":"AZ","description":"D VELCO -- PHOENIX,AZ","user_id":"DAWS","CustomerName":"D VELCO","solo_key":2084,"cb_territorty":"AZPHX"}}
,{"type":"Feature","geometry":{"type":"Point","coordinates":[-104.773478,40.328452]},"properties":{"cb_status":"U","City":"LA SALLE","State":"CO","description":"CONAGRA CATTLE FEED -- LA SALLE,CO","user_id":"DAWS","CustomerName":"CONAGRA CATTLE FEED","solo_key":2103,"cb_territorty":"COGREE"}}
,{"type":"Feature","geometry":{"type":"Point","coordinates":[-104.51992,40.379374]},"properties":{"cb_status":"U","City":"KERSEY","State":"CO","description":"MONFORT FEED LOT -- KERSEY,CO","user_id":"DAWS","CustomerName":"MONFORT FEED LOT","solo_key":2104,"cb_territorty":"COGREE"}}
,{"type":"Feature","geometry":{"type":"Point","coordinates":[-104.678078,40.411505]},"properties":{"cb_status":"G","City":"GREELEY","State":"CO","description":"APPLIED INDUSTRIAL TECHNOLOGIES -- GREELEY,CO","user_id":"DAWS","CustomerName":"APPLIED INDUSTRIAL TECHNOLOGIES","solo_key":2118,"cb_territorty":"COGREE"}}
,{"type":"Feature","geometry":{"type":"Point","coordinates":[-105.114366,40.153506]},"properties":{"cb_status":"H","City":"LONGMONT","State":"CO","description":"APPLIED INDUSTRIAL TECHNOLOGIES -- LONGMONT,CO","user_id":"DAWS","CustomerName":"APPLIED INDUSTRIAL TECHNOLOGIES","solo_key":2121,"cb_territorty":"COLONG"}}
,{"type":"Feature","geometry":{"type":"Point","coordinates":[-103.209169,40.619413]},"properties":{"cb_status":"U","City":"STERLING","State":"CO","description":"APPLIED INDUSTRIAL TECHNOLOGIES -- STERLING,CO","user_id":"DAWS","CustomerName":"APPLIED INDUSTRIAL TECHNOLOGIES","solo_key":2129,"cb_territorty":"COMORG"}}
,{"type":"Feature","geometry":{"type":"Point","coordinates":[-105.016066,39.792687]},"properties":{"cb_status":"U","City":"DENVER","State":"CO","description":"CENTURYLINK -- DENVER,CO","user_id":"DAWS","CustomerName":"CENTURYLINK","solo_key":2157,"cb_territorty":"COWEST"}}
,{"type":"Feature","geometry":{"type":"Point","coordinates":[-104.960164,39.828874]},"properties":{"cb_status":"U","City":"DENVER","State":"CO","description":"N A P A DISTRIBUTION -- DENVER,CO","user_id":"DAWS","CustomerName":"N A P A DISTRIBUTION","solo_key":2184,"cb_territorty":"COWEST"}}
,{"type":"Feature","geometry":{"type":"Point","coordinates":[-105.041242,40.541032]},"properties":{"cb_status":"U","City":"FT COLLINS","State":"CO","description":"SYMBIOS LOGIC -- FT COLLINS,CO","user_id":"DAWS","CustomerName":"SYMBIOS LOGIC","solo_key":2191,"cb_territorty":"COCOLL"}}
,{"type":"Feature","geometry":{"type":"Point","coordinates":[-105.19179,40.077503]},"properties":{"cb_status":"U","City":"BOULDER","State":"CO","description":"NEODATA DATABASE MARKETING SERVICES -- BOULDER,CO","user_id":"DAWS","CustomerName":"NEODATA DATABASE MARKETING SERVICES","solo_key":2232,"cb_territorty":"COBOUL"}}
,{"type":"Feature","geometry":{"type":"Point","coordinates":[-104.984741,40.433898]},"properties":{"cb_status":"U","City":"LOVELAND","State":"CO","description":"COMPLEX TOOLING AND MOLDING -- LOVELAND,CO","user_id":"DAWS","CustomerName":"COMPLEX TOOLING AND MOLDING","solo_key":2247,"cb_territorty":"COLOVE"}}
,{"type":"Feature","geometry":{"type":"Point","coordinates":[-105.000459,39.783888]},"properties":{"cb_status":"U","City":"DENVER","State":"CO","description":"NOBEL SYSCO -- DENVER,CO","user_id":"DAWS","CustomerName":"NOBEL SYSCO","solo_key":2259,"cb_territorty":"COWEST"}}
,{"type":"Feature","geometry":{"type":"Point","coordinates":[-104.687019,40.428463]},"properties":{"cb_status":"U","City":"GREELEY","State":"CO","description":"NOFFSINGER MANUFACTURING -- GREELEY,CO","user_id":"DAWS","CustomerName":"NOFFSINGER MANUFACTURING","solo_key":2261,"cb_territorty":"COGREE"}}
,{"type":"Feature","geometry":{"type":"Point","coordinates":[-104.680357,40.387423]},"properties":{"cb_status":"U","City":"GREELEY","State":"CO","description":"NORWEST PUBLISHING -- GREELEY,CO","user_id":"DAWS","CustomerName":"NORWEST PUBLISHING","solo_key":2284,"cb_territorty":"COGREE"}}
,{"type":"Feature","geometry":{"type":"Point","coordinates":[-105.182348,40.088194]},"properties":{"cb_status":"U","City":"LONGMONT","State":"CO","description":"P T A CORPORATION -- LONGMONT,CO","user_id":"DAWS","CustomerName":"P T A CORPORATION","solo_key":2329,"cb_territorty":"COBOUL"}}
,{"type":"Feature","geometry":{"type":"Point","coordinates":[-105.226427,40.035783]},"properties":{"cb_status":"U","City":"BOULDER","State":"CO","description":"PARTICLE MEASURING SYSTEMS -- BOULDER,CO","user_id":"DAWS","CustomerName":"PARTICLE MEASURING SYSTEMS","solo_key":2367,"cb_territorty":"COBOUL"}}
,{"type":"Feature","geometry":{"type":"Point","coordinates":[-109.323392,33.052844]},"properties":{"cb_status":"A","City":"MORENCI","State":"AZ","description":"FREEPORT MCMORAN COPPER GOLD -- MORENCI,AZ","user_id":"DAWS","CustomerName":"FREEPORT MCMORAN COPPER GOLD","solo_key":2396,"cb_territorty":"AZ"}}
,{"type":"Feature","geometry":{"type":"Point","coordinates":[-112.073635,33.448437]},"properties":{"cb_status":"U","City":"PHOENIX","State":"AZ","description":"FREEPORT MCMORAN -- PHOENIX,AZ","user_id":"DAWS","CustomerName":"FREEPORT MCMORAN","solo_key":2399,"cb_territorty":"AZPHX"}}
,{"type":"Feature","geometry":{"type":"Point","coordinates":[-110.958988,32.18288]},"properties":{"cb_status":"U","City":"TUCSON","State":"AZ","description":"PIMA WELDING SUPPLY -- TUCSON,AZ","user_id":"DAWS","CustomerName":"PIMA WELDING SUPPLY","solo_key":2416,"cb_territorty":"AZTUS"}}
,{"type":"Feature","geometry":{"type":"Point","coordinates":[-112.000897,33.418337]},"properties":{"cb_status":"G","City":"PHOENIX","State":"AZ","description":"PIONEER EQUIPMENT -- PHOENIX,AZ","user_id":"DAWS","CustomerName":"PIONEER EQUIPMENT","solo_key":2422,"cb_territorty":"AZPHX"}}
,{"type":"Feature","geometry":{"type":"Point","coordinates":[-104.956315,39.840037]},"properties":{"cb_status":"G","City":"DENVER","State":"CO","description":"PIPE VALVE AND FITTING -- DENVER,CO","user_id":"DAWS","CustomerName":"PIPE VALVE AND FITTING","solo_key":2425,"cb_territorty":"COWEST"}}
,{"type":"Feature","geometry":{"type":"Point","coordinates":[-105.10609,40.002108]},"properties":{"cb_status":"U","City":"LAFAYETTE","State":"CO","description":"DESIGN FABRICATORS -- LAFAYETTE,CO","user_id":"DAWS","CustomerName":"DESIGN FABRICATORS","solo_key":2439,"cb_territorty":"COBOUL"}}
,{"type":"Feature","geometry":{"type":"Point","coordinates":[-105.108619,40.158604]},"properties":{"cb_status":"U","City":"LONGMONT","State":"CO","description":"TREND TECHNOLOGIES -- LONGMONT,CO","user_id":"DAWS","CustomerName":"TREND TECHNOLOGIES","solo_key":2446,"cb_territorty":"COLONG"}}
,{"type":"Feature","geometry":{"type":"Point","coordinates":[-104.659876,40.410035]},"properties":{"cb_status":"C","City":"GREELEY","State":"CO","description":"GENESIS PLASTECH -- GREELEY,CO","user_id":"DAWS","CustomerName":"GENESIS PLASTECH","solo_key":2448,"cb_territorty":"COGREE"}}
,{"type":"Feature","geometry":{"type":"Point","coordinates":[-104.978278,39.813268]},"properties":{"cb_status":"U","City":"DENVER","State":"CO","description":"P T S I -- DENVER,CO","user_id":"DAWS","CustomerName":"P T S I","solo_key":2487,"cb_territorty":"COWEST"}}
,{"type":"Feature","geometry":{"type":"Point","coordinates":[-105.207879,40.070545]},"properties":{"cb_status":"U","City":"BOULDER","State":"CO","description":"VISUAL NUMERICS -- BOULDER,CO","user_id":"DAWS","CustomerName":"VISUAL NUMERICS","solo_key":2501,"cb_territorty":"COBOUL"}}
,{"type":"Feature","geometry":{"type":"Point","coordinates":[-105.004005,39.915863]},"properties":{"cb_status":"G","City":"WESTMINSTER","State":"CO","description":"PROTOGENIC INC -- WESTMINSTER,CO","user_id":"DAWS","CustomerName":"PROTOGENIC INC","solo_key":2530,"cb_territorty":"COBROO"}}
,{"type":"Feature","geometry":{"type":"Point","coordinates":[-111.012492,32.281836]},"properties":{"cb_status":"U","City":"TUCSON","State":"AZ","description":"YOUNG BLOCK -- TUCSON,AZ","user_id":"DAWS","CustomerName":"YOUNG BLOCK","solo_key":2536,"cb_territorty":"AZTUS"}}
,{"type":"Feature","geometry":{"type":"Point","coordinates":[-103.67889,40.22061]},"properties":{"cb_status":"E","City":"BRUSH","State":"CO","description":"XCEL ENERGY PAWNEE PLANT -- BRUSH,CO","user_id":"DAWS","CustomerName":"XCEL ENERGY PAWNEE PLANT","solo_key":2539,"cb_territorty":"COMORG"}}
,{"type":"Feature","geometry":{"type":"Point","coordinates":[-105.20175,40.01908]},"properties":{"cb_status":"U","City":"BOULDER","State":"CO","description":"XCEL ENERGY -- BOULDER,CO","user_id":"DAWS","CustomerName":"XCEL ENERGY","solo_key":2545,"cb_territorty":"COBOUL"}}
,{"type":"Feature","geometry":{"type":"Point","coordinates":[-105.161781,39.776083]},"properties":{"cb_status":"D","City":"GOLDEN","State":"CO","description":"D X P -- GOLDEN,CO","user_id":"DAWS","CustomerName":"D X P","solo_key":2569,"cb_territorty":"COARVA"}}
,{"type":"Feature","geometry":{"type":"Point","coordinates":[-105.20469,40.069935]},"properties":{"cb_status":"U","City":"BOULDER","State":"CO","description":"RELA -- BOULDER,CO","user_id":"DAWS","CustomerName":"RELA","solo_key":2631,"cb_territorty":"COBOUL"}}
,{"type":"Feature","geometry":{"type":"Point","coordinates":[-112.047253,33.414607]},"properties":{"cb_status":"U","City":"PHOENIX","State":"AZ","description":"DODGE RELIANCE -- PHOENIX,AZ","user_id":"DAWS","CustomerName":"DODGE RELIANCE","solo_key":2646,"cb_territorty":"AZPHX"}}
,{"type":"Feature","geometry":{"type":"Point","coordinates":[-105.044824,40.569158]},"properties":{"cb_status":"U","City":"FT COLLINS","State":"CO","description":"REMOTE POWER -- FT COLLINS,CO","user_id":"DAWS","CustomerName":"REMOTE POWER","solo_key":2649,"cb_territorty":"COCOLL"}}
,{"type":"Feature","geometry":{"type":"Point","coordinates":[-110.957654,32.182891]},"properties":{"cb_status":"U","City":"TUCSON","State":"AZ","description":"REUTER EQUIPMENT CO -- TUCSON,AZ","user_id":"DAWS","CustomerName":"REUTER EQUIPMENT CO","solo_key":2653,"cb_territorty":"AZTUS"}}
,{"type":"Feature","geometry":{"type":"Point","coordinates":[-104.962115,39.815989]},"properties":{"cb_status":"U","City":"DENVER","State":"CO","description":"REX IRON AND MACHINE -- DENVER,CO","user_id":"DAWS","CustomerName":"REX IRON AND MACHINE","solo_key":2654,"cb_territorty":"COWEST"}}
,{"type":"Feature","geometry":{"type":"Point","coordinates":[-112.065517,33.440627]},"properties":{"cb_status":"G","City":"PHOENIX","State":"AZ","description":"ROAD MACHINERY LLC -- PHOENIX,AZ","user_id":"DAWS","CustomerName":"ROAD MACHINERY LLC","solo_key":2677,"cb_territorty":"AZPHX"}}
,{"type":"Feature","geometry":{"type":"Point","coordinates":[-104.966514,39.894441]},"properties":{"cb_status":"U","City":"NORTHGLENN","State":"CO","description":"ROAD MACHINERY AND SUPPLY -- NORTHGLENN,CO","user_id":"DAWS","CustomerName":"ROAD MACHINERY AND SUPPLY","solo_key":2678,"cb_territorty":"COBROO"}}
,{"type":"Feature","geometry":{"type":"Point","coordinates":[-105.061665,39.798482]},"properties":{"cb_status":"U","City":"ARVADA","State":"CO","description":"WARDEN CO -- ARVADA,CO","user_id":"DAWS","CustomerName":"WARDEN CO","solo_key":2683,"cb_territorty":"COARVA"}}
,{"type":"Feature","geometry":{"type":"Point","coordinates":[-104.96515,39.898237]},"properties":{"cb_status":"U","City":"NORTHGLENN","State":"CO","description":"ROBERTSON AND ASSOCIATES -- NORTHGLENN,CO","user_id":"DAWS","CustomerName":"ROBERTSON AND ASSOCIATES","solo_key":2686,"cb_territorty":"COBROO"}}
,{"type":"Feature","geometry":{"type":"Point","coordinates":[-110.146749,34.512802]},"properties":{"cb_status":"U","City":"SNOWFLAKE","State":"AZ","description":"ABATIVI CONSOLIDATED PAPER COMPANY -- SNOWFLAKE,AZ","user_id":"DAWS","CustomerName":"ABATIVI CONSOLIDATED PAPER COMPANY","solo_key":2695,"cb_territorty":"AZ"}}
,{"type":"Feature","geometry":{"type":"Point","coordinates":[-112.117103,33.462713]},"properties":{"cb_status":"U","City":"PHOENIX","State":"AZ","description":"A B F FREIGHT SYSTEMS -- PHOENIX,AZ","user_id":"DAWS","CustomerName":"A B F FREIGHT SYSTEMS","solo_key":2704,"cb_territorty":"AZPHX"}}
,{"type":"Feature","geometry":{"type":"Point","coordinates":[-104.678079,40.404815]},"properties":{"cb_status":"U","City":"GREELEY","State":"CO","description":"D X P ENTERPRISES -- GREELEY,CO","user_id":"DAWS","CustomerName":"D X P ENTERPRISES","solo_key":2711,"cb_territorty":"COGREE"}}
,{"type":"Feature","geometry":{"type":"Point","coordinates":[-104.95428,40.406863]},"properties":{"cb_status":"G","City":"LOVELAND","State":"CO","description":"RON GROB COMPANY -- LOVELAND,CO","user_id":"DAWS","CustomerName":"RON GROB COMPANY","solo_key":2722,"cb_territorty":"COLOVE"}}
,{"type":"Feature","geometry":{"type":"Point","coordinates":[-105.04885,40.591464]},"properties":{"cb_status":"U","City":"FT COLLINS","State":"CO","description":"REXEL RYALL ELECTRICAL SUPPLIES -- FT COLLINS,CO","user_id":"DAWS","CustomerName":"REXEL RYALL ELECTRICAL SUPPLIES","solo_key":2750,"cb_territorty":"COCOLL"}}
,{"type":"Feature","geometry":{"type":"Point","coordinates":[-111.973697,33.421783]},"properties":{"cb_status":"U","City":"TEMPE","State":"AZ","description":"S M A SOUTHWEST CO -- TEMPE,AZ","user_id":"DAWS","CustomerName":"S M A SOUTHWEST CO","solo_key":2772,"cb_territorty":"AZPHX"}}
,{"type":"Feature","geometry":{"type":"Point","coordinates":[-105.068326,39.862886]},"properties":{"cb_status":"U","City":"WESTMINSTER","State":"CO","description":"SALCO -- WESTMINSTER,CO","user_id":"DAWS","CustomerName":"SALCO","solo_key":2779,"cb_territorty":"COARVA"}}
,{"type":"Feature","geometry":{"type":"Point","coordinates":[-111.620512,35.194855]},"properties":{"cb_status":"U","City":"FLAGSTAFF","State":"AZ","description":"SAVAGE WELDING -- FLAGSTAFF,AZ","user_id":"DAWS","CustomerName":"SAVAGE WELDING","solo_key":2794,"cb_territorty":"AZ"}}
,{"type":"Feature","geometry":{"type":"Point","coordinates":[-105.050033,40.583827]},"properties":{"cb_status":"U","City":"FT COLLINS","State":"CO","description":"SEDER PLASTICS -- FT COLLINS,CO","user_id":"DAWS","CustomerName":"SEDER PLASTICS","solo_key":2809,"cb_territorty":"COCOLL"}}
,{"type":"Feature","geometry":{"type":"Point","coordinates":[-105.068278,39.860928]},"properties":{"cb_status":"G","City":"WESTMINSTER","State":"CO","description":"SERPENTIX CONVEYOR -- WESTMINSTER,CO","user_id":"DAWS","CustomerName":"SERPENTIX CONVEYOR","solo_key":2810,"cb_territorty":"COWEST"}}
,{"type":"Feature","geometry":{"type":"Point","coordinates":[-111.945735,33.369035]},"properties":{"cb_status":"U","City":"TEMPE","State":"AZ","description":"M E GLOBAL -- TEMPE,AZ","user_id":"DAWS","CustomerName":"M E GLOBAL","solo_key":2843,"cb_territorty":"AZPHX"}}
,{"type":"Feature","geometry":{"type":"Point","coordinates":[-104.685272,40.409863]},"properties":{"cb_status":"U","City":"GREELEY","State":"CO","description":"THERMO POWER AND ELECTRIC  LLC -- GREELEY,CO","user_id":"DAWS","CustomerName":"THERMO POWER AND ELECTRIC  LLC","solo_key":2846,"cb_territorty":"COGREE"}}
,{"type":"Feature","geometry":{"type":"Point","coordinates":[-105.263779,40.22146]},"properties":{"cb_status":"A","City":"LYONS","State":"CO","description":"CEMEX -- LYONS,CO","user_id":"DAWS","CustomerName":"CEMEX","solo_key":2879,"cb_territorty":"COBOUL"}}
,{"type":"Feature","geometry":{"type":"Point","coordinates":[-104.979,40.144337]},"properties":{"cb_status":"U","City":"LONGMONT","State":"CO","description":"SPECIALTY PRODUCTS COMPANY -- LONGMONT,CO","user_id":"DAWS","CustomerName":"SPECIALTY PRODUCTS COMPANY","solo_key":2885,"cb_territorty":"COLONG"}}
,{"type":"Feature","geometry":{"type":"Point","coordinates":[-104.690281,40.38723]},"properties":{"cb_status":"U","City":"GREELEY","State":"CO","description":"STATE FARM INSURANCE -- GREELEY,CO","user_id":"DAWS","CustomerName":"STATE FARM INSURANCE","solo_key":2912,"cb_territorty":"COGREE"}}
,{"type":"Feature","geometry":{"type":"Point","coordinates":[-105.05603,40.403037]},"properties":{"cb_status":"U","City":"LOVELAND","State":"CO","description":"SUPER VACUUM MANUFACTURING COMPANY -- LOVELAND,CO","user_id":"DAWS","CustomerName":"SUPER VACUUM MANUFACTURING COMPANY","solo_key":2959,"cb_territorty":"COLOVE"}}
,{"type":"Feature","geometry":{"type":"Point","coordinates":[-105.225614,40.020513]},"properties":{"cb_status":"U","City":"BOULDER","State":"CO","description":"CORDEN PHARMA COLORADO -- BOULDER,CO","user_id":"DAWS","CustomerName":"CORDEN PHARMA COLORADO","solo_key":2966,"cb_territorty":"COBOUL"}}
,{"type":"Feature","geometry":{"type":"Point","coordinates":[-105.05147,40.585687]},"properties":{"cb_status":"U","City":"FT COLLINS","State":"CO","description":"TECHNICAL MOLDED PRODUCTS -- FT COLLINS,CO","user_id":"DAWS","CustomerName":"TECHNICAL MOLDED PRODUCTS","solo_key":2991,"cb_territorty":"COCOLL"}}
,{"type":"Feature","geometry":{"type":"Point","coordinates":[-104.99271,39.905727]},"properties":{"cb_status":"U","City":"NORTHGLENN","State":"CO","description":"TECHNO CORP -- NORTHGLENN,CO","user_id":"DAWS","CustomerName":"TECHNO CORP","solo_key":2992,"cb_territorty":"COBROO"}}
,{"type":"Feature","geometry":{"type":"Point","coordinates":[-105.100941,39.92126]},"properties":{"cb_status":"U","City":"BROOMFIELD","State":"CO","description":"TEILHABER MANUFACTURING CORP -- BROOMFIELD,CO","user_id":"DAWS","CustomerName":"TEILHABER MANUFACTURING CORP","solo_key":2995,"cb_territorty":"COBROO"}}
,{"type":"Feature","geometry":{"type":"Point","coordinates":[-105.046127,40.567171]},"properties":{"cb_status":"U","City":"FT COLLINS","State":"CO","description":"WATERPIK -- FT COLLINS,CO","user_id":"DAWS","CustomerName":"WATERPIK","solo_key":2999,"cb_territorty":"COCOLL"}}
,{"type":"Feature","geometry":{"type":"Point","coordinates":[-105.119995,39.960009]},"properties":{"cb_status":"U","City":"LOUISVILLE","State":"CO","description":"LARCAN TTC -- LOUISVILLE,CO","user_id":"DAWS","CustomerName":"LARCAN TTC","solo_key":3001,"cb_territorty":"COBOUL"}}
,{"type":"Feature","geometry":{"type":"Point","coordinates":[-104.998814,40.152968]},"properties":{"cb_status":"G","City":"LONGMONT","State":"CO","description":"TEMPERATURE PROCESSING -- LONGMONT,CO","user_id":"DAWS","CustomerName":"TEMPERATURE PROCESSING","solo_key":3002,"cb_territorty":"COLONG"}}
,{"type":"Feature","geometry":{"type":"Point","coordinates":[-104.9840999,39.913478]},"properties":{"cb_status":"U","City":"NORTHGLENN","State":"CO","description":"TOWER DRILLING -- NORTHGLENN,CO","user_id":"DAWS","CustomerName":"TOWER DRILLING","solo_key":3076,"cb_territorty":"COBROO"}}
,{"type":"Feature","geometry":{"type":"Point","coordinates":[-110.899346,32.16294]},"properties":{"cb_status":"C","City":"TUCSON","State":"AZ","description":"TUCSON ELECTRIC POWER CO -- TUCSON,AZ","user_id":"DAWS","CustomerName":"TUCSON ELECTRIC POWER CO","solo_key":3124,"cb_territorty":"AZTUS"}}
,{"type":"Feature","geometry":{"type":"Point","coordinates":[-105.111229,39.910019]},"properties":{"cb_status":"U","City":"BROOMFIELD","State":"CO","description":"TURBO WEST -- BROOMFIELD,CO","user_id":"DAWS","CustomerName":"TURBO WEST","solo_key":3128,"cb_territorty":"COBROO"}}
,{"type":"Feature","geometry":{"type":"Point","coordinates":[-105.2613809,39.9952719]},"properties":{"cb_status":"U","City":"BOULDER","State":"CO","description":"U S DEPARTMENT OF COMMERCE -- BOULDER,CO","user_id":"DAWS","CustomerName":"U S DEPARTMENT OF COMMERCE","solo_key":3144,"cb_territorty":"COBOUL"}}
,{"type":"Feature","geometry":{"type":"Point","coordinates":[-112.140896,33.497855]},"properties":{"cb_status":"U","City":"PHOENIX","State":"AZ","description":"CENTURYLINK -- PHOENIX,AZ","user_id":"DAWS","CustomerName":"CENTURYLINK","solo_key":3154,"cb_territorty":"AZPHX"}}
,{"type":"Feature","geometry":{"type":"Point","coordinates":[-104.985388,39.916048]},"properties":{"cb_status":"U","City":"THORNTON","State":"CO","description":"CENTURYLINK -- THORNTON,CO","user_id":"DAWS","CustomerName":"CENTURYLINK","solo_key":3157,"cb_territorty":"COBROO"}}
,{"type":"Feature","geometry":{"type":"Point","coordinates":[-111.939784,33.365063]},"properties":{"cb_status":"U","City":"TEMPE","State":"AZ","description":"CENTURYLINK -- TEMPE,AZ","user_id":"DAWS","CustomerName":"CENTURYLINK","solo_key":3162,"cb_territorty":"AZPHX"}}
,{"type":"Feature","geometry":{"type":"Point","coordinates":[-105.081452,40.430363]},"properties":{"cb_status":"U","City":"LOVELAND","State":"CO","description":"WORLD COLOR LOVELAND -- LOVELAND,CO","user_id":"DAWS","CustomerName":"WORLD COLOR LOVELAND","solo_key":3170,"cb_territorty":"COLOVE"}}
,{"type":"Feature","geometry":{"type":"Point","coordinates":[-105.018877,39.721063]},"properties":{"cb_status":"U","City":"ARVADA","State":"CO","description":"UNION BEARING -- ARVADA,CO","user_id":"DAWS","CustomerName":"UNION BEARING","solo_key":3176,"cb_territorty":"COARVA"}}
,{"type":"Feature","geometry":{"type":"Point","coordinates":[-104.98722,39.824637]},"properties":{"cb_status":"U","City":"DENVER","State":"CO","description":"FRINGE BENEFIT SERVICE -- DENVER,CO","user_id":"DAWS","CustomerName":"FRINGE BENEFIT SERVICE","solo_key":3212,"cb_territorty":"COWEST"}}
,{"type":"Feature","geometry":{"type":"Point","coordinates":[-112.117035,33.430531]},"properties":{"cb_status":"G","City":"PHOENIX","State":"AZ","description":"VALLEY FORGE AND BOLT MANUFACTURING -- PHOENIX,AZ","user_id":"DAWS","CustomerName":"VALLEY FORGE AND BOLT MANUFACTURING","solo_key":3233,"cb_territorty":"AZPHX"}}
,{"type":"Feature","geometry":{"type":"Point","coordinates":[-105.078683,40.603682]},"properties":{"cb_status":"F","City":"FORT COLLINS","State":"CO","description":"VALLEY STEEL AND WIRE -- FORT COLLINS,CO","user_id":"DAWS","CustomerName":"VALLEY STEEL AND WIRE","solo_key":3235,"cb_territorty":"COCOLL"}}
,{"type":"Feature","geometry":{"type":"Point","coordinates":[-105.029892,40.566567]},"properties":{"cb_status":"U","City":"FT COLLINS","State":"CO","description":"VIADENT -- FT COLLINS,CO","user_id":"DAWS","CustomerName":"VIADENT","solo_key":3254,"cb_territorty":"COCOLL"}}
,{"type":"Feature","geometry":{"type":"Point","coordinates":[-105.07267,40.397591]},"properties":{"cb_status":"U","City":"LOVELAND","State":"CO","description":"WAL MART DISTRIBUTING -- LOVELAND,CO","user_id":"DAWS","CustomerName":"WAL MART DISTRIBUTING","solo_key":3283,"cb_territorty":"COLOVE"}}
,{"type":"Feature","geometry":{"type":"Point","coordinates":[-104.968519,39.814725]},"properties":{"cb_status":"D","City":"DENVER","State":"CO","description":"SUNSOURCE -- DENVER,CO","user_id":"DAWS","CustomerName":"SUNSOURCE","solo_key":3294,"cb_territorty":"COWEST"}}
,{"type":"Feature","geometry":{"type":"Point","coordinates":[-104.978278,39.816125]},"properties":{"cb_status":"G","City":"DENVER","State":"CO","description":"WEAVER ELECTRIC -- DENVER,CO","user_id":"DAWS","CustomerName":"WEAVER ELECTRIC","solo_key":3310,"cb_territorty":"COWEST"}}
,{"type":"Feature","geometry":{"type":"Point","coordinates":[-105.046768,40.588791]},"properties":{"cb_status":"H","City":"FORT COLLINS","State":"CO","description":"WESCO DISTRIBUTION -- FORT COLLINS,CO","user_id":"DAWS","CustomerName":"WESCO DISTRIBUTION","solo_key":3321,"cb_territorty":"COCOLL"}}
,{"type":"Feature","geometry":{"type":"Point","coordinates":[-103.822415,40.263325]},"properties":{"cb_status":"E","City":"FORT MORGAN","State":"CO","description":"WESTERN SUGAR -- FORT MORGAN,CO","user_id":"DAWS","CustomerName":"WESTERN SUGAR","solo_key":3391,"cb_territorty":"COMORG"}}
,{"type":"Feature","geometry":{"type":"Point","coordinates":[-105.044832,40.568821]},"properties":{"cb_status":"U","City":"FT COLLINS","State":"CO","description":"WINLECTRIC CO -- FT COLLINS,CO","user_id":"DAWS","CustomerName":"WINLECTRIC CO","solo_key":3436,"cb_territorty":"COCOLL"}}
,{"type":"Feature","geometry":{"type":"Point","coordinates":[-111.977173,33.424338]},"properties":{"cb_status":"U","City":"TEMPE","State":"AZ","description":"WINN MARION INC -- TEMPE,AZ","user_id":"DAWS","CustomerName":"WINN MARION INC","solo_key":3442,"cb_territorty":"AZPHX"}}
,{"type":"Feature","geometry":{"type":"Point","coordinates":[-105.060018,40.552637]},"properties":{"cb_status":"G","City":"FT COLLINS","State":"CO","description":"WOODWARD GOVERNOR COMPANY -- FT COLLINS,CO","user_id":"DAWS","CustomerName":"WOODWARD GOVERNOR COMPANY","solo_key":3451,"cb_territorty":"COCOLL"}}
,{"type":"Feature","geometry":{"type":"Point","coordinates":[-104.982568,39.923579]},"properties":{"cb_status":"U","City":"THORNTON","State":"CO","description":"WYLE LABORATORIES -- THORNTON,CO","user_id":"DAWS","CustomerName":"WYLE LABORATORIES","solo_key":3454,"cb_territorty":"COBROO"}}
,{"type":"Feature","geometry":{"type":"Point","coordinates":[-112.188454,33.392037]},"properties":{"cb_status":"U","City":"LAVEEN","State":"AZ","description":"ARNOLD MACHINERY CO -- LAVEEN,AZ","user_id":"DAWS","CustomerName":"ARNOLD MACHINERY CO","solo_key":3477,"cb_territorty":"AZPHX"}}
,{"type":"Feature","geometry":{"type":"Point","coordinates":[-105.179424,39.778711]},"properties":{"cb_status":"U","City":"GOLDEN","State":"CO","description":"GRAPHIC PACKAGING CORP -- GOLDEN,CO","user_id":"DAWS","CustomerName":"GRAPHIC PACKAGING CORP","solo_key":3489,"cb_territorty":"COARVA"}}
,{"type":"Feature","geometry":{"type":"Point","coordinates":[-105.115395,40.432503]},"properties":{"cb_status":"H","City":"LOVELAND","State":"CO","description":"WOODWARD GOVERNOR COMPANY -- LOVELAND,CO","user_id":"DAWS","CustomerName":"WOODWARD GOVERNOR COMPANY","solo_key":3490,"cb_territorty":"COLOVE"}}
,{"type":"Feature","geometry":{"type":"Point","coordinates":[-112.004151,33.404831]},"properties":{"cb_status":"U","City":"PHOENIX","State":"AZ","description":"JAMES COOK AND HOBSON -- PHOENIX,AZ","user_id":"DAWS","CustomerName":"JAMES COOK AND HOBSON","solo_key":3492,"cb_territorty":"AZPHX"}}
,{"type":"Feature","geometry":{"type":"Point","coordinates":[-111.5941737,33.296748]},"properties":{"cb_status":"U","City":"QUEEN CREEK","State":"AZ","description":"OLIN CORPORATION -- QUEEN CREEK,AZ","user_id":"DAWS","CustomerName":"OLIN CORPORATION","solo_key":3494,"cb_territorty":"AZPHX"}}
,{"type":"Feature","geometry":{"type":"Point","coordinates":[-105.071684,39.790928]},"properties":{"cb_status":"U","City":"ARVADA","State":"CO","description":"NATIONAL WATER SYSTEMS INC -- ARVADA,CO","user_id":"DAWS","CustomerName":"NATIONAL WATER SYSTEMS INC","solo_key":3499,"cb_territorty":"COARVA"}}
,{"type":"Feature","geometry":{"type":"Point","coordinates":[-105.278957,40.019499]},"properties":{"cb_status":"U","City":"BOULDER","State":"CO","description":"GRIFF ADVERTISING -- BOULDER,CO","user_id":"DAWS","CustomerName":"GRIFF ADVERTISING","solo_key":3518,"cb_territorty":"COBOUL"}}
,{"type":"Feature","geometry":{"type":"Point","coordinates":[-104.979097,39.884928]},"properties":{"cb_status":"U","City":"DENVER","State":"CO","description":"WINCHELLS DONUTS -- DENVER,CO","user_id":"DAWS","CustomerName":"WINCHELLS DONUTS","solo_key":3523,"cb_territorty":"COBROO"}}
,{"type":"Feature","geometry":{"type":"Point","coordinates":[-105.204406,40.072232]},"properties":{"cb_status":"U","City":"BOULDER","State":"CO","description":"HARD CORE SPORTS -- BOULDER,CO","user_id":"DAWS","CustomerName":"HARD CORE SPORTS","solo_key":3554,"cb_territorty":"COBOUL"}}
,{"type":"Feature","geometry":{"type":"Point","coordinates":[-105.110611,40.403482]},"properties":{"cb_status":"U","City":"LOVELAND","State":"CO","description":"REMOTE SWITCH SYSTEMS INC -- LOVELAND,CO","user_id":"DAWS","CustomerName":"REMOTE SWITCH SYSTEMS INC","solo_key":3561,"cb_territorty":"COLOVE"}}
,{"type":"Feature","geometry":{"type":"Point","coordinates":[-105.161781,39.776083]},"properties":{"cb_status":"U","City":"GOLDEN","State":"CO","description":"DOPPELMAYR USA INC -- GOLDEN,CO","user_id":"DAWS","CustomerName":"DOPPELMAYR USA INC","solo_key":3563,"cb_territorty":"COARVA"}}
,{"type":"Feature","geometry":{"type":"Point","coordinates":[-105.219376,40.025611]},"properties":{"cb_status":"U","City":"BOULDER","State":"CO","description":"SOMATOGEN -- BOULDER,CO","user_id":"DAWS","CustomerName":"SOMATOGEN","solo_key":3592,"cb_territorty":"COBOUL"}}
,{"type":"Feature","geometry":{"type":"Point","coordinates":[-105.166368,39.810824]},"properties":{"cb_status":"H","City":"ARVADA","State":"CO","description":"UTILITY CONTROL AND EQUIPMENT CORP -- ARVADA,CO","user_id":"DAWS","CustomerName":"UTILITY CONTROL AND EQUIPMENT CORP","solo_key":3617,"cb_territorty":"COARVA"}}
,{"type":"Feature","geometry":{"type":"Point","coordinates":[-104.96622,39.896768]},"properties":{"cb_status":"U","City":"NORTHGLENN","State":"CO","description":"AMERICAN PRECISION PLASTICS -- NORTHGLENN,CO","user_id":"DAWS","CustomerName":"AMERICAN PRECISION PLASTICS","solo_key":3626,"cb_territorty":"COBROO"}}
,{"type":"Feature","geometry":{"type":"Point","coordinates":[-112.001007,33.422079]},"properties":{"cb_status":"U","City":"PHOENIX","State":"AZ","description":"APPLIED INDUSTRIAL TECHNOLOGIES -- PHOENIX,AZ","user_id":"DAWS","CustomerName":"APPLIED INDUSTRIAL TECHNOLOGIES","solo_key":3629,"cb_territorty":"AZPHX"}}
,{"type":"Feature","geometry":{"type":"Point","coordinates":[-105.078153,40.305337]},"properties":{"cb_status":"U","City":"BERTHOUD","State":"CO","description":"SONOCO PRODUCTS COMPANY -- BERTHOUD,CO","user_id":"DAWS","CustomerName":"SONOCO PRODUCTS COMPANY","solo_key":3648,"cb_territorty":"COLOVE"}}
,{"type":"Feature","geometry":{"type":"Point","coordinates":[-110.950603,32.134337]},"properties":{"cb_status":"D","City":"TUCSON","State":"AZ","description":"GENERAL ELECTRIC -- TUCSON,AZ","user_id":"DAWS","CustomerName":"GENERAL ELECTRIC","solo_key":3666,"cb_territorty":"AZTUS"}}
,{"type":"Feature","geometry":{"type":"Point","coordinates":[-110.926461,32.168433]},"properties":{"cb_status":"H","City":"TUCSON","State":"AZ","description":"ARNOLD MACHINERY COMPANY -- TUCSON,AZ","user_id":"DAWS","CustomerName":"ARNOLD MACHINERY COMPANY","solo_key":3684,"cb_territorty":"AZTUS"}}
,{"type":"Feature","geometry":{"type":"Point","coordinates":[-104.95522,39.828663]},"properties":{"cb_status":"U","City":"DENVER","State":"CO","description":"BRANNAN SAND AND GRAVEL -- DENVER,CO","user_id":"DAWS","CustomerName":"BRANNAN SAND AND GRAVEL","solo_key":3693,"cb_territorty":"COWEST"}}
,{"type":"Feature","geometry":{"type":"Point","coordinates":[-104.967873,39.821663]},"properties":{"cb_status":"H","City":"DENVER","State":"CO","description":"METAL TREATING AND RESEARCH CO -- DENVER,CO","user_id":"DAWS","CustomerName":"METAL TREATING AND RESEARCH CO","solo_key":3703,"cb_territorty":"COWEST"}}
,{"type":"Feature","geometry":{"type":"Point","coordinates":[-110.923223,32.184536]},"properties":{"cb_status":"D","City":"TUCSON","State":"AZ","description":"ROAD MACHINERY L L C -- TUCSON,AZ","user_id":"DAWS","CustomerName":"ROAD MACHINERY L L C","solo_key":3706,"cb_territorty":"AZTUS"}}
,{"type":"Feature","geometry":{"type":"Point","coordinates":[-104.962566,39.815559]},"properties":{"cb_status":"U","City":"DENVER","State":"CO","description":"DENVER MIXER -- DENVER,CO","user_id":"DAWS","CustomerName":"DENVER MIXER","solo_key":3719,"cb_territorty":"COWEST"}}
,{"type":"Feature","geometry":{"type":"Point","coordinates":[-112.141332,33.422697]},"properties":{"cb_status":"U","City":"PHOENIX","State":"AZ","description":"REUTER EQUIPMENT CO -- PHOENIX,AZ","user_id":"DAWS","CustomerName":"REUTER EQUIPMENT CO","solo_key":3726,"cb_territorty":"AZPHX"}}
,{"type":"Feature","geometry":{"type":"Point","coordinates":[-112.021287,33.397453]},"properties":{"cb_status":"E","City":"PHOENIX","State":"AZ","description":"QUADNA INC -- PHOENIX,AZ","user_id":"DAWS","CustomerName":"QUADNA INC","solo_key":3732,"cb_territorty":"AZPHX"}}
,{"type":"Feature","geometry":{"type":"Point","coordinates":[-111.966015,33.407822]},"properties":{"cb_status":"U","City":"TEMPE","State":"AZ","description":"XTEK MINING SERVICES -- TEMPE,AZ","user_id":"DAWS","CustomerName":"XTEK MINING SERVICES","solo_key":3733,"cb_territorty":"AZPHX"}}
,{"type":"Feature","geometry":{"type":"Point","coordinates":[-112.047285,33.414984]},"properties":{"cb_status":"U","City":"PHOENIX","State":"AZ","description":"LARON INCORPORATED -- PHOENIX,AZ","user_id":"DAWS","CustomerName":"LARON INCORPORATED","solo_key":3734,"cb_territorty":"AZPHX"}}
,{"type":"Feature","geometry":{"type":"Point","coordinates":[-104.95912,39.813674]},"properties":{"cb_status":"U","City":"DENVER","State":"CO","description":"METRO WASTEWATER RECLAMATION -- DENVER,CO","user_id":"DAWS","CustomerName":"METRO WASTEWATER RECLAMATION","solo_key":3770,"cb_territorty":"COWEST"}}
,{"type":"Feature","geometry":{"type":"Point","coordinates":[-105.03938,40.561856]},"properties":{"cb_status":"U","City":"FT COLLINS","State":"CO","description":"ENERGY COATINGS COMPANY -- FT COLLINS,CO","user_id":"DAWS","CustomerName":"ENERGY COATINGS COMPANY","solo_key":3834,"cb_territorty":"COCOLL"}}
,{"type":"Feature","geometry":{"type":"Point","coordinates":[-112.105864,33.565874]},"properties":{"cb_status":"U","City":"PHOENIX","State":"AZ","description":"CENTURYLINK -- PHOENIX,AZ","user_id":"DAWS","CustomerName":"CENTURYLINK","solo_key":3860,"cb_territorty":"AZPHX"}}
,{"type":"Feature","geometry":{"type":"Point","coordinates":[-105.114372,39.914476]},"properties":{"cb_status":"U","City":"BROOMFIELD","State":"CO","description":"KNUDSON MFG -- BROOMFIELD,CO","user_id":"DAWS","CustomerName":"KNUDSON MFG","solo_key":3915,"cb_territorty":"COBROO"}}
,{"type":"Feature","geometry":{"type":"Point","coordinates":[-104.674911,40.42529]},"properties":{"cb_status":"U","City":"GREELEY","State":"CO","description":"B AND G EQUIPMENT INC -- GREELEY,CO","user_id":"DAWS","CustomerName":"B AND G EQUIPMENT INC","solo_key":3953,"cb_territorty":"COGREE"}}
,{"type":"Feature","geometry":{"type":"Point","coordinates":[-105.225226,40.036632]},"properties":{"cb_status":"U","City":"BOULDER","State":"CO","description":"HAUSER CHEMICAL -- BOULDER,CO","user_id":"DAWS","CustomerName":"HAUSER CHEMICAL","solo_key":3977,"cb_territorty":"COBOUL"}}
,{"type":"Feature","geometry":{"type":"Point","coordinates":[-105.214305,40.064183]},"properties":{"cb_status":"U","City":"BOULDER","State":"CO","description":"VALLEYLAB INC -- BOULDER,CO","user_id":"DAWS","CustomerName":"VALLEYLAB INC","solo_key":3978,"cb_territorty":"COBOUL"}}
,{"type":"Feature","geometry":{"type":"Point","coordinates":[-111.008966,32.274488]},"properties":{"cb_status":"U","City":"TUCSON","State":"AZ","description":"WARREN INC -- TUCSON,AZ","user_id":"DAWS","CustomerName":"WARREN INC","solo_key":3981,"cb_territorty":"AZTUS"}}
,{"type":"Feature","geometry":{"type":"Point","coordinates":[-112.134134,33.488254]},"properties":{"cb_status":"U","City":"PHOENIX","State":"AZ","description":"JOHN STONE SUPPLY -- PHOENIX,AZ","user_id":"DAWS","CustomerName":"JOHN STONE SUPPLY","solo_key":3985,"cb_territorty":"AZPHX"}}
,{"type":"Feature","geometry":{"type":"Point","coordinates":[-105.17442,39.80675]},"properties":{"cb_status":"U","City":"GOLDEN","State":"CO","description":"AMAX INC EXTRACTIVE R AND D CENTER -- GOLDEN,CO","user_id":"DAWS","CustomerName":"AMAX INC EXTRACTIVE R AND D CENTER","solo_key":4008,"cb_territorty":"COARVA"}}
,{"type":"Feature","geometry":{"type":"Point","coordinates":[-105.197081,40.014837]},"properties":{"cb_status":"U","City":"BOULDER","State":"CO","description":"LIGHTNING ELIMINATORS -- BOULDER,CO","user_id":"DAWS","CustomerName":"LIGHTNING ELIMINATORS","solo_key":4038,"cb_territorty":"COBOUL"}}
,{"type":"Feature","geometry":{"type":"Point","coordinates":[-104.968386,39.821937]},"properties":{"cb_status":"U","City":"DENVER","State":"CO","description":"ACE EQUIPMENT AND SUPPLY CO -- DENVER,CO","user_id":"DAWS","CustomerName":"ACE EQUIPMENT AND SUPPLY CO","solo_key":4069,"cb_territorty":"COWEST"}}
,{"type":"Feature","geometry":{"type":"Point","coordinates":[-112.140164,33.477348]},"properties":{"cb_status":"U","City":"PHOENIX","State":"AZ","description":"COMPONENT SALES -- PHOENIX,AZ","user_id":"DAWS","CustomerName":"COMPONENT SALES","solo_key":4122,"cb_territorty":"AZPHX"}}
,{"type":"Feature","geometry":{"type":"Point","coordinates":[-105.053477,39.801177]},"properties":{"cb_status":"G","City":"ARVADA","State":"CO","description":"DAIRY ENGINEERING -- ARVADA,CO","user_id":"DAWS","CustomerName":"DAIRY ENGINEERING","solo_key":4203,"cb_territorty":"COARVA"}}
,{"type":"Feature","geometry":{"type":"Point","coordinates":[-105.061678,39.798448]},"properties":{"cb_status":"U","City":"ARVADA","State":"CO","description":"M D I PINNACLE -- ARVADA,CO","user_id":"DAWS","CustomerName":"M D I PINNACLE","solo_key":4208,"cb_territorty":"COARVA"}}
,{"type":"Feature","geometry":{"type":"Point","coordinates":[-105.246102,40.015638]},"properties":{"cb_status":"U","City":"BOULDER","State":"CO","description":"EXABYTE CORPORATION -- BOULDER,CO","user_id":"DAWS","CustomerName":"EXABYTE CORPORATION","solo_key":4246,"cb_territorty":"COBOUL"}}
,{"type":"Feature","geometry":{"type":"Point","coordinates":[-105.102879,39.895845]},"properties":{"cb_status":"C","City":"BROOMFIELD","State":"CO","description":"BALL PACKAGING CORP -- BROOMFIELD,CO","user_id":"DAWS","CustomerName":"BALL PACKAGING CORP","solo_key":4251,"cb_territorty":"COBROO"}}
,{"type":"Feature","geometry":{"type":"Point","coordinates":[-105.261182,40.145163]},"properties":{"cb_status":"U","City":"LONGMONT","State":"CO","description":"AMGEN -- LONGMONT,CO","user_id":"DAWS","CustomerName":"AMGEN","solo_key":4293,"cb_territorty":"COBOUL"}}
,{"type":"Feature","geometry":{"type":"Point","coordinates":[-105.1384004,39.811614]},"properties":{"cb_status":"U","City":"ARVADA","State":"CO","description":"OMNI TECH -- ARVADA,CO","user_id":"DAWS","CustomerName":"OMNI TECH","solo_key":4330,"cb_territorty":"COARVA"}}
,{"type":"Feature","geometry":{"type":"Point","coordinates":[-105.102653,39.924332]},"properties":{"cb_status":"H","City":"BROOMFIELD","State":"CO","description":"SANDOZ INC -- BROOMFIELD,CO","user_id":"DAWS","CustomerName":"SANDOZ INC","solo_key":4368,"cb_territorty":"COBROO"}}
,{"type":"Feature","geometry":{"type":"Point","coordinates":[-105.206954,40.014837]},"properties":{"cb_status":"U","City":"BOULDER","State":"CO","description":"BREECE HILL TECHNOLOGIES -- BOULDER,CO","user_id":"DAWS","CustomerName":"BREECE HILL TECHNOLOGIES","solo_key":4385,"cb_territorty":"COBOUL"}}
,{"type":"Feature","geometry":{"type":"Point","coordinates":[-105.177219,40.089437]},"properties":{"cb_status":"U","City":"LONGMONT","State":"CO","description":"VERIS INC -- LONGMONT,CO","user_id":"DAWS","CustomerName":"VERIS INC","solo_key":4386,"cb_territorty":"COBOUL"}}
,{"type":"Feature","geometry":{"type":"Point","coordinates":[-104.778505,40.280767]},"properties":{"cb_status":"U","City":"PLATTEVILLE","State":"CO","description":"PATTERSON-UTI DRILLING CO -- PLATTEVILLE,CO","user_id":"DAWS","CustomerName":"PATTERSON-UTI DRILLING CO","solo_key":4387,"cb_territorty":"COGREE"}}
,{"type":"Feature","geometry":{"type":"Point","coordinates":[-104.979595,40.209475]},"properties":{"cb_status":"U","City":"LONGMONT","State":"CO","description":"ARTEMIS RUBBER TECHNOLOGY -- LONGMONT,CO","user_id":"DAWS","CustomerName":"ARTEMIS RUBBER TECHNOLOGY","solo_key":4414,"cb_territorty":"COLONG"}}
,{"type":"Feature","geometry":{"type":"Point","coordinates":[-104.981881,39.923443]},"properties":{"cb_status":"U","City":"DENVER","State":"CO","description":"KRAYDEN -- DENVER,CO","user_id":"DAWS","CustomerName":"KRAYDEN","solo_key":4416,"cb_territorty":"COBROO"}}
,{"type":"Feature","geometry":{"type":"Point","coordinates":[-105.033204,40.588879]},"properties":{"cb_status":"U","City":"FT COLLINS","State":"CO","description":"WASSON ECE -- FT COLLINS,CO","user_id":"DAWS","CustomerName":"WASSON ECE","solo_key":4425,"cb_territorty":"COCOLL"}}
,{"type":"Feature","geometry":{"type":"Point","coordinates":[-112.145932,33.433578]},"properties":{"cb_status":"U","City":"PHOENIX","State":"AZ","description":"KELLY PIPE CO -- PHOENIX,AZ","user_id":"DAWS","CustomerName":"KELLY PIPE CO","solo_key":4450,"cb_territorty":"AZPHX"}}
,{"type":"Feature","geometry":{"type":"Point","coordinates":[-111.904292,33.465616]},"properties":{"cb_status":"U","City":"SCOTTSDALE","State":"AZ","description":"GENERAL DYNAMICS -- SCOTTSDALE,AZ","user_id":"DAWS","CustomerName":"GENERAL DYNAMICS","solo_key":4456,"cb_territorty":"AZPHX"}}
,{"type":"Feature","geometry":{"type":"Point","coordinates":[-105.141667,39.976894]},"properties":{"cb_status":"U","City":"LOUISVILLE","State":"CO","description":"LINHOLM CORPORATION -- LOUISVILLE,CO","user_id":"DAWS","CustomerName":"LINHOLM CORPORATION","solo_key":4464,"cb_territorty":"COBOUL"}}
,{"type":"Feature","geometry":{"type":"Point","coordinates":[-105.111962,39.918622]},"properties":{"cb_status":"U","City":"BROOMFIELD","State":"CO","description":"MCDATA CORPORATION -- BROOMFIELD,CO","user_id":"DAWS","CustomerName":"MCDATA CORPORATION","solo_key":4483,"cb_territorty":"COBROO"}}
,{"type":"Feature","geometry":{"type":"Point","coordinates":[-111.467575,36.925125]},"properties":{"cb_status":"U","City":"PAGE","State":"AZ","description":"MARRIOTT COURTYARD -- PAGE,AZ","user_id":"DAWS","CustomerName":"MARRIOTT COURTYARD","solo_key":4663,"cb_territorty":"AZ"}}
,{"type":"Feature","geometry":{"type":"Point","coordinates":[-104.9872012,39.8202846]},"properties":{"cb_status":"U","City":"DENVER","State":"CO","description":"WESTERN BUILDING SERVICES -- DENVER,CO","user_id":"DAWS","CustomerName":"WESTERN BUILDING SERVICES","solo_key":4666,"cb_territorty":"COWEST"}}
,{"type":"Feature","geometry":{"type":"Point","coordinates":[-104.715879,40.42901]},"properties":{"cb_status":"U","City":"GREELEY","State":"CO","description":"E F T C -- GREELEY,CO","user_id":"DAWS","CustomerName":"E F T C","solo_key":4731,"cb_territorty":"COGREE"}}
,{"type":"Feature","geometry":{"type":"Point","coordinates":[-104.796459,40.429338]},"properties":{"cb_status":"U","City":"GREELEY","State":"CO","description":"E F T C -- GREELEY,CO","user_id":"DAWS","CustomerName":"E F T C","solo_key":4735,"cb_territorty":"COGREE"}}
,{"type":"Feature","geometry":{"type":"Point","coordinates":[-105.164974,39.816312]},"properties":{"cb_status":"U","City":"ARVADA","State":"CO","description":"ROGERS WIRE EDM SERVICES -- ARVADA,CO","user_id":"DAWS","CustomerName":"ROGERS WIRE EDM SERVICES","solo_key":4738,"cb_territorty":"COARVA"}}
,{"type":"Feature","geometry":{"type":"Point","coordinates":[-105.225176,40.004528]},"properties":{"cb_status":"U","City":"BOULDER","State":"CO","description":"C T S I -- BOULDER,CO","user_id":"DAWS","CustomerName":"C T S I","solo_key":4773,"cb_territorty":"COBOUL"}}
,{"type":"Feature","geometry":{"type":"Point","coordinates":[-105.284585,40.016793]},"properties":{"cb_status":"U","City":"BOULDER","State":"CO","description":"GRIP INC -- BOULDER,CO","user_id":"DAWS","CustomerName":"GRIP INC","solo_key":4787,"cb_territorty":"COBOUL"}}
,{"type":"Feature","geometry":{"type":"Point","coordinates":[-105.248008,40.027368]},"properties":{"cb_status":"U","City":"BOULDER","State":"CO","description":"BLUE MOUNTAIN ARTS -- BOULDER,CO","user_id":"DAWS","CustomerName":"BLUE MOUNTAIN ARTS","solo_key":4840,"cb_territorty":"COBOUL"}}
,{"type":"Feature","geometry":{"type":"Point","coordinates":[-105.081478,40.430313]},"properties":{"cb_status":"U","City":"LOVELAND","State":"CO","description":"QWEST MARKETING -- LOVELAND,CO","user_id":"DAWS","CustomerName":"QWEST MARKETING","solo_key":4863,"cb_territorty":"COLOVE"}}
,{"type":"Feature","geometry":{"type":"Point","coordinates":[-105.06712,39.803211]},"properties":{"cb_status":"U","City":"ARVADA","State":"CO","description":"MACHINE MASTERS -- ARVADA,CO","user_id":"DAWS","CustomerName":"MACHINE MASTERS","solo_key":4878,"cb_territorty":"COARVA"}}
,{"type":"Feature","geometry":{"type":"Point","coordinates":[-105.247218,40.024132]},"properties":{"cb_status":"U","City":"BOULDER","State":"CO","description":"SPYDER ACTIVE SPORTS INC -- BOULDER,CO","user_id":"DAWS","CustomerName":"SPYDER ACTIVE SPORTS INC","solo_key":4887,"cb_territorty":"COBOUL"}}
,{"type":"Feature","geometry":{"type":"Point","coordinates":[-105.179424,39.778095]},"properties":{"cb_status":"U","City":"GOLDEN","State":"CO","description":"COGNITIVE -- GOLDEN,CO","user_id":"DAWS","CustomerName":"COGNITIVE","solo_key":4894,"cb_territorty":"COARVA"}}
,{"type":"Feature","geometry":{"type":"Point","coordinates":[-112.169277,33.446153]},"properties":{"cb_status":"U","City":"PHOENIX","State":"AZ","description":"RYERSON STEEL -- PHOENIX,AZ","user_id":"DAWS","CustomerName":"RYERSON STEEL","solo_key":4897,"cb_territorty":"AZPHX"}}
,{"type":"Feature","geometry":{"type":"Point","coordinates":[-110.925035,32.181266]},"properties":{"cb_status":"U","City":"TUCSON","State":"AZ","description":"DESERT ENGINEERING GROUP -- TUCSON,AZ","user_id":"DAWS","CustomerName":"DESERT ENGINEERING GROUP","solo_key":4902,"cb_territorty":"AZTUS"}}
,{"type":"Feature","geometry":{"type":"Point","coordinates":[-105.013567,40.523597]},"properties":{"cb_status":"U","City":"FORT COLLINS","State":"CO","description":"HEWLETT PACKARD CO -- FORT COLLINS,CO","user_id":"DAWS","CustomerName":"HEWLETT PACKARD CO","solo_key":4972,"cb_territorty":"COCOLL"}}
,{"type":"Feature","geometry":{"type":"Point","coordinates":[-105.008379,40.578207]},"properties":{"cb_status":"U","City":"FT COLLINS","State":"CO","description":"GOODALL ELECTRIC -- FT COLLINS,CO","user_id":"DAWS","CustomerName":"GOODALL ELECTRIC","solo_key":4978,"cb_territorty":"COCOLL"}}
,{"type":"Feature","geometry":{"type":"Point","coordinates":[-112.117046,33.463701]},"properties":{"cb_status":"U","City":"PHOENIX","State":"AZ","description":"FALCON POWER -- PHOENIX,AZ","user_id":"DAWS","CustomerName":"FALCON POWER","solo_key":4990,"cb_territorty":"AZPHX"}}
,{"type":"Feature","geometry":{"type":"Point","coordinates":[-105.026529,40.841537]},"properties":{"cb_status":"G","City":"WELLINGTON","State":"CO","description":"PLATTE RIVER POWER -- WELLINGTON,CO","user_id":"DAWS","CustomerName":"PLATTE RIVER POWER","solo_key":5001,"cb_territorty":"COCOLL"}}
,{"type":"Feature","geometry":{"type":"Point","coordinates":[-104.977445,40.144366]},"properties":{"cb_status":"U","City":"LONGMONT","State":"CO","description":"HAUSER CHEMICAL RESEARCH -- LONGMONT,CO","user_id":"DAWS","CustomerName":"HAUSER CHEMICAL RESEARCH","solo_key":5005,"cb_territorty":"COLONG"}}
,{"type":"Feature","geometry":{"type":"Point","coordinates":[-110.897387,32.166229]},"properties":{"cb_status":"U","City":"TUCSON","State":"AZ","description":"S M A -- TUCSON,AZ","user_id":"DAWS","CustomerName":"S M A","solo_key":5045,"cb_territorty":"AZTUS"}}
,{"type":"Feature","geometry":{"type":"Point","coordinates":[-104.68041,40.387438]},"properties":{"cb_status":"U","City":"GREELEY","State":"CO","description":"R R DONNELLEY -- GREELEY,CO","user_id":"DAWS","CustomerName":"R R DONNELLEY","solo_key":5046,"cb_territorty":"COGREE"}}
,{"type":"Feature","geometry":{"type":"Point","coordinates":[-105.156467,40.289337]},"properties":{"cb_status":"U","City":"BERTHOUD","State":"CO","description":"L A DESIGNS -- BERTHOUD,CO","user_id":"DAWS","CustomerName":"L A DESIGNS","solo_key":5047,"cb_territorty":"COLOVE"}}
,{"type":"Feature","geometry":{"type":"Point","coordinates":[-112.130061,33.483387]},"properties":{"cb_status":"U","City":"PHOENIX","State":"AZ","description":"GRAYBAR ELECTRIC -- PHOENIX,AZ","user_id":"DAWS","CustomerName":"GRAYBAR ELECTRIC","solo_key":5068,"cb_territorty":"AZPHX"}}
,{"type":"Feature","geometry":{"type":"Point","coordinates":[-105.246921,40.022295]},"properties":{"cb_status":"U","City":"BOULDER","State":"CO","description":"MEYCO -- BOULDER,CO","user_id":"DAWS","CustomerName":"MEYCO","solo_key":5075,"cb_territorty":"COBOUL"}}
,{"type":"Feature","geometry":{"type":"Point","coordinates":[-104.689418,40.444633]},"properties":{"cb_status":"H","City":"GREELEY","State":"CO","description":"JBS LAMB COMPANY  ALIAS SWIFT  -- GREELEY,CO","user_id":"DAWS","CustomerName":"JBS LAMB COMPANY  ALIAS SWIFT","solo_key":5082,"cb_territorty":"COGREE"}}
,{"type":"Feature","geometry":{"type":"Point","coordinates":[-105.102038,39.921548]},"properties":{"cb_status":"U","City":"BROOMFIELD","State":"CO","description":"KEY PRODUCTS -- BROOMFIELD,CO","user_id":"DAWS","CustomerName":"KEY PRODUCTS","solo_key":5098,"cb_territorty":"COBROO"}}
,{"type":"Feature","geometry":{"type":"Point","coordinates":[-105.272546,40.018484]},"properties":{"cb_status":"U","City":"BOULDER","State":"CO","description":"B M A ART DEPARTMENT -- BOULDER,CO","user_id":"DAWS","CustomerName":"B M A ART DEPARTMENT","solo_key":5103,"cb_territorty":"COBOUL"}}
,{"type":"Feature","geometry":{"type":"Point","coordinates":[-112.065944,33.440844]},"properties":{"cb_status":"U","City":"PHOENIX","State":"AZ","description":"KARLSON MACHINE -- PHOENIX,AZ","user_id":"DAWS","CustomerName":"KARLSON MACHINE","solo_key":5113,"cb_territorty":"AZPHX"}}
,{"type":"Feature","geometry":{"type":"Point","coordinates":[-104.701759,40.34817]},"properties":{"cb_status":"U","City":"LA SALLE","State":"CO","description":"K E A METAL RING CO -- LA SALLE,CO","user_id":"DAWS","CustomerName":"K E A METAL RING CO","solo_key":5115,"cb_territorty":"COGREE"}}
,{"type":"Feature","geometry":{"type":"Point","coordinates":[-105.176738,39.782952]},"properties":{"cb_status":"E","City":"GOLDEN","State":"CO","description":"COORSTEK -- GOLDEN,CO","user_id":"DAWS","CustomerName":"COORSTEK","solo_key":5117,"cb_territorty":"COARVA"}}
,{"type":"Feature","geometry":{"type":"Point","coordinates":[-105.075856,40.159569]},"properties":{"cb_status":"U","City":"LONGMONT","State":"CO","description":"HILLESBOG -- LONGMONT,CO","user_id":"DAWS","CustomerName":"HILLESBOG","solo_key":5122,"cb_territorty":"COLONG"}}
,{"type":"Feature","geometry":{"type":"Point","coordinates":[-111.92723,33.37532]},"properties":{"cb_status":"U","City":"TEMPE","State":"AZ","description":"JOHN RYBURN SERVICES -- TEMPE,AZ","user_id":"DAWS","CustomerName":"JOHN RYBURN SERVICES","solo_key":5135,"cb_territorty":"AZPHX"}}
,{"type":"Feature","geometry":{"type":"Point","coordinates":[-105.086314,39.785949]},"properties":{"cb_status":"U","City":"ARVADA","State":"CO","description":"SERVICE CENTER OF COLORADO -- ARVADA,CO","user_id":"DAWS","CustomerName":"SERVICE CENTER OF COLORADO","solo_key":5156,"cb_territorty":"COARVA"}}
,{"type":"Feature","geometry":{"type":"Point","coordinates":[-105.073633,40.544599]},"properties":{"cb_status":"U","City":"FORT COLLINS","State":"CO","description":"COLORADO LOTTERY -- FORT COLLINS,CO","user_id":"DAWS","CustomerName":"COLORADO LOTTERY","solo_key":5165,"cb_territorty":"COCOLL"}}
,{"type":"Feature","geometry":{"type":"Point","coordinates":[-105.141251,40.019177]},"properties":{"cb_status":"U","City":"BOULDER","State":"CO","description":"HODGSON -- BOULDER,CO","user_id":"DAWS","CustomerName":"HODGSON","solo_key":5171,"cb_territorty":"COBOUL"}}
,{"type":"Feature","geometry":{"type":"Point","coordinates":[-111.824588,33.377088]},"properties":{"cb_status":"U","City":"GILBERT","State":"AZ","description":"WACO SCAFFOLDING -- GILBERT,AZ","user_id":"DAWS","CustomerName":"WACO SCAFFOLDING","solo_key":5182,"cb_territorty":"AZPHX"}}
,{"type":"Feature","geometry":{"type":"Point","coordinates":[-112.207344,33.552817]},"properties":{"cb_status":"U","City":"GLENDALE","State":"AZ","description":"ROCKTENN -- GLENDALE,AZ","user_id":"DAWS","CustomerName":"ROCKTENN","solo_key":5184,"cb_territorty":"AZPHX"}}
,{"type":"Feature","geometry":{"type":"Point","coordinates":[-104.905878,40.335903]},"properties":{"cb_status":"U","City":"JOHNSTOWN","State":"CO","description":"JOSHUA CABLEVISION -- JOHNSTOWN,CO","user_id":"DAWS","CustomerName":"JOSHUA CABLEVISION","solo_key":5199,"cb_territorty":"COLOVE"}}
,{"type":"Feature","geometry":{"type":"Point","coordinates":[-105.226535,40.017937]},"properties":{"cb_status":"U","City":"BOULDER","State":"CO","description":"COLLINS MACHINE -- BOULDER,CO","user_id":"DAWS","CustomerName":"COLLINS MACHINE","solo_key":5226,"cb_territorty":"COBOUL"}}
,{"type":"Feature","geometry":{"type":"Point","coordinates":[-111.01992,32.287141]},"properties":{"cb_status":"U","City":"TUCSON","State":"AZ","description":"MILLER ENGINEERING -- TUCSON,AZ","user_id":"DAWS","CustomerName":"MILLER ENGINEERING","solo_key":5251,"cb_territorty":"AZTUS"}}
,{"type":"Feature","geometry":{"type":"Point","coordinates":[-111.007045,32.272522]},"properties":{"cb_status":"U","City":"TUCSON","State":"AZ","description":"CUMMINS SOUTHWEST INC -- TUCSON,AZ","user_id":"DAWS","CustomerName":"CUMMINS SOUTHWEST INC","solo_key":5252,"cb_territorty":"AZTUS"}}
,{"type":"Feature","geometry":{"type":"Point","coordinates":[-112.026609,33.423863]},"properties":{"cb_status":"U","City":"PHOENIX","State":"AZ","description":"CADENA CONSULTING ENGINEERING LLC -- PHOENIX,AZ","user_id":"DAWS","CustomerName":"CADENA CONSULTING ENGINEERING LLC","solo_key":5257,"cb_territorty":"AZPHX"}}
,{"type":"Feature","geometry":{"type":"Point","coordinates":[-105.104755,40.003763]},"properties":{"cb_status":"U","City":"LAFAYETTE","State":"CO","description":"MOTION AND FLOW CONTROL PRODUCTS INC -- LAFAYETTE,CO","user_id":"DAWS","CustomerName":"MOTION AND FLOW CONTROL PRODUCTS INC","solo_key":5288,"cb_territorty":"COBOUL"}}
,{"type":"Feature","geometry":{"type":"Point","coordinates":[-105.065856,39.798614]},"properties":{"cb_status":"U","City":"ARVADA","State":"CO","description":"SWISS LENNOX -- ARVADA,CO","user_id":"DAWS","CustomerName":"SWISS LENNOX","solo_key":5301,"cb_territorty":"COARVA"}}
,{"type":"Feature","geometry":{"type":"Point","coordinates":[-105.247325,40.026466]},"properties":{"cb_status":"U","City":"BOULDER","State":"CO","description":"KAPP TECH -- BOULDER,CO","user_id":"DAWS","CustomerName":"KAPP TECH","solo_key":5304,"cb_territorty":"COBOUL"}}
,{"type":"Feature","geometry":{"type":"Point","coordinates":[-104.956058,39.830972]},"properties":{"cb_status":"U","City":"DENVER","State":"CO","description":"EAGLE ROCK SUPPLY -- DENVER,CO","user_id":"DAWS","CustomerName":"EAGLE ROCK SUPPLY","solo_key":5314,"cb_territorty":"COWEST"}}
,{"type":"Feature","geometry":{"type":"Point","coordinates":[-105.168307,39.972874]},"properties":{"cb_status":"U","City":"LOUISVILLE","State":"CO","description":"OHMEDA -- LOUISVILLE,CO","user_id":"DAWS","CustomerName":"OHMEDA","solo_key":5322,"cb_territorty":"COBOUL"}}
,{"type":"Feature","geometry":{"type":"Point","coordinates":[-103.7649,40.252578]},"properties":{"cb_status":"U","City":"FORT MORGAN","State":"CO","description":"U S ENGINEERING -- FORT MORGAN,CO","user_id":"DAWS","CustomerName":"U S ENGINEERING","solo_key":5343,"cb_territorty":"COMORG"}}
,{"type":"Feature","geometry":{"type":"Point","coordinates":[-112.134506,33.625437]},"properties":{"cb_status":"U","City":"PHOENIX","State":"AZ","description":"CENTURYLINK -- PHOENIX,AZ","user_id":"DAWS","CustomerName":"CENTURYLINK","solo_key":5349,"cb_territorty":"AZPHX"}}
,{"type":"Feature","geometry":{"type":"Point","coordinates":[-112.069234,33.482679]},"properties":{"cb_status":"U","City":"PHOENIX","State":"AZ","description":"CENTURYLINK -- PHOENIX,AZ","user_id":"DAWS","CustomerName":"CENTURYLINK","solo_key":5395,"cb_territorty":"AZPHX"}}
,{"type":"Feature","geometry":{"type":"Point","coordinates":[-104.721046,40.446775]},"properties":{"cb_status":"U","City":"GREELEY","State":"CO","description":"WESTERN MOBILE -- GREELEY,CO","user_id":"DAWS","CustomerName":"WESTERN MOBILE","solo_key":5403,"cb_territorty":"COGREE"}}
,{"type":"Feature","geometry":{"type":"Point","coordinates":[-105.112179,40.154837]},"properties":{"cb_status":"U","City":"LONGMONT","State":"CO","description":"AIM PROCESSING -- LONGMONT,CO","user_id":"DAWS","CustomerName":"AIM PROCESSING","solo_key":5410,"cb_territorty":"COLONG"}}
,{"type":"Feature","geometry":{"type":"Point","coordinates":[-105.041559,40.533449]},"properties":{"cb_status":"U","City":"FORT COLLINS","State":"CO","description":"C B W AUTOMATION -- FORT COLLINS,CO","user_id":"DAWS","CustomerName":"C B W AUTOMATION","solo_key":5416,"cb_territorty":"COCOLL"}}
,{"type":"Feature","geometry":{"type":"Point","coordinates":[-105.225614,40.022887]},"properties":{"cb_status":"U","City":"BOULDER","State":"CO","description":"OHMEDA -- BOULDER,CO","user_id":"DAWS","CustomerName":"OHMEDA","solo_key":5419,"cb_territorty":"COBOUL"}}
,{"type":"Feature","geometry":{"type":"Point","coordinates":[-105.086314,39.785949]},"properties":{"cb_status":"U","City":"ARVADA","State":"CO","description":"L AND K MAIL SERVICES -- ARVADA,CO","user_id":"DAWS","CustomerName":"L AND K MAIL SERVICES","solo_key":5431,"cb_territorty":"COARVA"}}
,{"type":"Feature","geometry":{"type":"Point","coordinates":[-105.146825,39.947607]},"properties":{"cb_status":"U","City":"LOUISVILLE","State":"CO","description":"STORAGE TECHNOLOGY -- LOUISVILLE,CO","user_id":"DAWS","CustomerName":"STORAGE TECHNOLOGY","solo_key":5443,"cb_territorty":"COBOUL"}}
,{"type":"Feature","geometry":{"type":"Point","coordinates":[-103.796619,40.24779]},"properties":{"cb_status":"H","City":"FORT MORGAN","State":"CO","description":"WAREHOUSE SUPPLY -- FORT MORGAN,CO","user_id":"DAWS","CustomerName":"WAREHOUSE SUPPLY","solo_key":5451,"cb_territorty":"COMORG"}}
,{"type":"Feature","geometry":{"type":"Point","coordinates":[-105.175074,39.780022]},"properties":{"cb_status":"U","City":"GOLDEN","State":"CO","description":"COORSTEK -- GOLDEN,CO","user_id":"DAWS","CustomerName":"COORSTEK","solo_key":5457,"cb_territorty":"COARVA"}}
,{"type":"Feature","geometry":{"type":"Point","coordinates":[-112.064825,33.414792]},"properties":{"cb_status":"U","City":"PHOENIX","State":"AZ","description":"CENTURYLINK -- PHOENIX,AZ","user_id":"DAWS","CustomerName":"CENTURYLINK","solo_key":5460,"cb_territorty":"AZPHX"}}
,{"type":"Feature","geometry":{"type":"Point","coordinates":[-104.681126,40.402541]},"properties":{"cb_status":"U","City":"GREELEY","State":"CO","description":"STAR PAK -- GREELEY,CO","user_id":"DAWS","CustomerName":"STAR PAK","solo_key":5471,"cb_territorty":"COGREE"}}
,{"type":"Feature","geometry":{"type":"Point","coordinates":[-105.086313,39.785858]},"properties":{"cb_status":"U","City":"ARVADA","State":"CO","description":"HAGGLUNDS -- ARVADA,CO","user_id":"DAWS","CustomerName":"HAGGLUNDS","solo_key":5505,"cb_territorty":"COARVA"}}
,{"type":"Feature","geometry":{"type":"Point","coordinates":[-96.924019,46.877319]},"properties":{"cb_status":"U","City":"WEST FARGO","State":"ND","description":"CATERPILLAR REMAN DRIVETRAIN LTD (CRDL) -- WEST FARGO,ND","user_id":"DAWS","CustomerName":"CATERPILLAR REMAN DRIVETRAIN LTD (CRDL)","solo_key":5516,"cb_territorty":"ND"}}
,{"type":"Feature","geometry":{"type":"Point","coordinates":[-105.244586,40.019471]},"properties":{"cb_status":"U","City":"BOULDER","State":"CO","description":"ED ASCHENBRENNER -- BOULDER,CO","user_id":"DAWS","CustomerName":"ED ASCHENBRENNER","solo_key":5519,"cb_territorty":"COBOUL"}}
,{"type":"Feature","geometry":{"type":"Point","coordinates":[-111.995285,33.41932]},"properties":{"cb_status":"U","City":"PHOENIX","State":"AZ","description":"PATENT CONSTRUCTION -- PHOENIX,AZ","user_id":"DAWS","CustomerName":"PATENT CONSTRUCTION","solo_key":5633,"cb_territorty":"AZPHX"}}
,{"type":"Feature","geometry":{"type":"Point","coordinates":[-105.0766,40.312553]},"properties":{"cb_status":"U","City":"BERTHOUD","State":"CO","description":"FLOW SYSTEMS -- BERTHOUD,CO","user_id":"DAWS","CustomerName":"FLOW SYSTEMS","solo_key":5640,"cb_territorty":"COLOVE"}}
,{"type":"Feature","geometry":{"type":"Point","coordinates":[-104.7091322,40.4233142]},"properties":{"cb_status":"U","City":"GREELEY","State":"CO","description":"ROCHE CONSTRUCTORS -- GREELEY,CO","user_id":"DAWS","CustomerName":"ROCHE CONSTRUCTORS","solo_key":5667,"cb_territorty":"COGREE"}}
,{"type":"Feature","geometry":{"type":"Point","coordinates":[-105.235445,39.762514]},"properties":{"cb_status":"U","City":"GOLDEN","State":"CO","description":"PRINTEGRITY -- GOLDEN,CO","user_id":"DAWS","CustomerName":"PRINTEGRITY","solo_key":5678,"cb_territorty":"COARVA"}}
,{"type":"Feature","geometry":{"type":"Point","coordinates":[-111.892126,32.609469]},"properties":{"cb_status":"U","City":"CASA GRANDE","State":"AZ","description":"CYPRESS TOHONO CORPORATION -- CASA GRANDE,AZ","user_id":"DAWS","CustomerName":"CYPRESS TOHONO CORPORATION","solo_key":5683,"cb_territorty":"AZPHX"}}
,{"type":"Feature","geometry":{"type":"Point","coordinates":[-112.151759,33.503739]},"properties":{"cb_status":"U","City":"PHOENIX","State":"AZ","description":"KRAGER INDUSTRIES -- PHOENIX,AZ","user_id":"DAWS","CustomerName":"KRAGER INDUSTRIES","solo_key":5746,"cb_territorty":"AZPHX"}}
,{"type":"Feature","geometry":{"type":"Point","coordinates":[-103.693955,48.139563]},"properties":{"cb_status":"U","City":"WILLISTON","State":"ND","description":"H S C INDUSTRIAL SUPPLY -- WILLISTON,ND","user_id":"DAWS","CustomerName":"H S C INDUSTRIAL SUPPLY","solo_key":5751,"cb_territorty":"ND"}}
,{"type":"Feature","geometry":{"type":"Point","coordinates":[-111.859281,33.324892]},"properties":{"cb_status":"U","City":"CHANDLER","State":"AZ","description":"FREESCALE -- CHANDLER,AZ","user_id":"DAWS","CustomerName":"FREESCALE","solo_key":5794,"cb_territorty":"AZPHX"}}
,{"type":"Feature","geometry":{"type":"Point","coordinates":[-111.987635,33.40869]},"properties":{"cb_status":"G","City":"PHOENIX","State":"AZ","description":"BALDOR ELECTRIC MOTOR -- PHOENIX,AZ","user_id":"DAWS","CustomerName":"BALDOR ELECTRIC MOTOR","solo_key":5832,"cb_territorty":"AZPHX"}}
,{"type":"Feature","geometry":{"type":"Point","coordinates":[-105.003724,39.812663]},"properties":{"cb_status":"U","City":"DENVER","State":"CO","description":"LA FARGE DENVER PAVING DIV -- DENVER,CO","user_id":"DAWS","CustomerName":"LA FARGE DENVER PAVING DIV","solo_key":5839,"cb_territorty":"COWEST"}}
,{"type":"Feature","geometry":{"type":"Point","coordinates":[-111.954134,33.329447]},"properties":{"cb_status":"U","City":"TEMPE","State":"AZ","description":"EXODYNE ELECTRIC -- TEMPE,AZ","user_id":"DAWS","CustomerName":"EXODYNE ELECTRIC","solo_key":5844,"cb_territorty":"AZPHX"}}
,{"type":"Feature","geometry":{"type":"Point","coordinates":[-105.06582,39.798667]},"properties":{"cb_status":"U","City":"ARVADA","State":"CO","description":"ALPINE PRINTING -- ARVADA,CO","user_id":"DAWS","CustomerName":"ALPINE PRINTING","solo_key":5872,"cb_territorty":"COARVA"}}
,{"type":"Feature","geometry":{"type":"Point","coordinates":[-105.070301,39.797553]},"properties":{"cb_status":"U","City":"ARVADA","State":"CO","description":"RAM GRINDING -- ARVADA,CO","user_id":"DAWS","CustomerName":"RAM GRINDING","solo_key":5894,"cb_territorty":"COARVA"}}
,{"type":"Feature","geometry":{"type":"Point","coordinates":[-105.06712,39.801306]},"properties":{"cb_status":"U","City":"ARVADA","State":"CO","description":"CREAM OF THE VALLEY -- ARVADA,CO","user_id":"DAWS","CustomerName":"CREAM OF THE VALLEY","solo_key":5899,"cb_territorty":"COARVA"}}
,{"type":"Feature","geometry":{"type":"Point","coordinates":[-111.630853,35.190554]},"properties":{"cb_status":"U","City":"FLAGSTAFF","State":"AZ","description":"QMAX -- FLAGSTAFF,AZ","user_id":"DAWS","CustomerName":"QMAX","solo_key":5959,"cb_territorty":"AZ"}}
,{"type":"Feature","geometry":{"type":"Point","coordinates":[-111.837128,33.352069]},"properties":{"cb_status":"U","City":"CHANDLER","State":"AZ","description":"NETMERCURY -- CHANDLER,AZ","user_id":"DAWS","CustomerName":"NETMERCURY","solo_key":5967,"cb_territorty":"AZPHX"}}
,{"type":"Feature","geometry":{"type":"Point","coordinates":[-103.795919,40.260437]},"properties":{"cb_status":"U","City":"FORT MORGAN","State":"CO","description":"G E JOHNSON MEDICAL CENTER -- FORT MORGAN,CO","user_id":"DAWS","CustomerName":"G E JOHNSON MEDICAL CENTER","solo_key":6001,"cb_territorty":"COMORG"}}
,{"type":"Feature","geometry":{"type":"Point","coordinates":[-111.897702,33.424119]},"properties":{"cb_status":"U","City":"TEMPE","State":"AZ","description":"TECH MEDICAL -- TEMPE,AZ","user_id":"DAWS","CustomerName":"TECH MEDICAL","solo_key":6013,"cb_territorty":"AZPHX"}}
,{"type":"Feature","geometry":{"type":"Point","coordinates":[-105.272546,40.018484]},"properties":{"cb_status":"U","City":"BOULDER","State":"CO","description":"BLUE MOUNTAIN ARTS -- BOULDER,CO","user_id":"DAWS","CustomerName":"BLUE MOUNTAIN ARTS","solo_key":6016,"cb_territorty":"COBOUL"}}
,{"type":"Feature","geometry":{"type":"Point","coordinates":[-105.093578,39.848607]},"properties":{"cb_status":"U","City":"ARVADA","State":"CO","description":"STIER DESIGN -- ARVADA,CO","user_id":"DAWS","CustomerName":"STIER DESIGN","solo_key":6034,"cb_territorty":"COARVA"}}
,{"type":"Feature","geometry":{"type":"Point","coordinates":[-110.926602,32.234794]},"properties":{"cb_status":"U","City":"TUCSON","State":"AZ","description":"CENTURYLINK -- TUCSON,AZ","user_id":"DAWS","CustomerName":"CENTURYLINK","solo_key":6041,"cb_territorty":"AZTUS"}}
,{"type":"Feature","geometry":{"type":"Point","coordinates":[-105.018917,39.812938]},"properties":{"cb_status":"U","City":"DENVER","State":"CO","description":"TUMBLEWEED PRESS -- DENVER,CO","user_id":"DAWS","CustomerName":"TUMBLEWEED PRESS","solo_key":6054,"cb_territorty":"COWEST"}}
,{"type":"Feature","geometry":{"type":"Point","coordinates":[-105.080947,39.816643]},"properties":{"cb_status":"U","City":"ARVADA","State":"CO","description":"COMPUTER EQUIPMENT WHAREHOUSE -- ARVADA,CO","user_id":"DAWS","CustomerName":"COMPUTER EQUIPMENT WHAREHOUSE","solo_key":6076,"cb_territorty":"COARVA"}}
,{"type":"Feature","geometry":{"type":"Point","coordinates":[-112.073248,33.480437]},"properties":{"cb_status":"U","City":"PHOENIX","State":"AZ","description":"CENTURYLINK -- PHOENIX,AZ","user_id":"DAWS","CustomerName":"CENTURYLINK","solo_key":6079,"cb_territorty":"AZPHX"}}
,{"type":"Feature","geometry":{"type":"Point","coordinates":[-111.995464,33.510037]},"properties":{"cb_status":"U","City":"PHOENIX","State":"AZ","description":"CENTURYLINK -- PHOENIX,AZ","user_id":"DAWS","CustomerName":"CENTURYLINK","solo_key":6080,"cb_territorty":"AZPHX"}}
,{"type":"Feature","geometry":{"type":"Point","coordinates":[-110.966564,32.286705]},"properties":{"cb_status":"U","City":"TUCSON","State":"AZ","description":"CENTURYLINK -- TUCSON,AZ","user_id":"DAWS","CustomerName":"CENTURYLINK","solo_key":6081,"cb_territorty":"AZTUS"}}
,{"type":"Feature","geometry":{"type":"Point","coordinates":[-112.872424,32.379065]},"properties":{"cb_status":"U","City":"AJO","State":"AZ","description":"MINERALS RESEARCH -- AJO,AZ","user_id":"DAWS","CustomerName":"MINERALS RESEARCH","solo_key":6105,"cb_territorty":"AZPHX"}}
,{"type":"Feature","geometry":{"type":"Point","coordinates":[-105.177219,40.089437]},